timestamp,msg_type,lat,lon,alt,roll,pitch,yaw,voltage,current,battery_remaining,throttle
2026-03-10T19:43:06.407102,ATTITUDE,,,,-0.009378191083669662,-0.011418508365750313,-0.3326127231121063
2026-03-10T19:43:06.409137,GLOBAL_POSITION_INT,0.0,0.0,2.49,,,
2026-03-10T19:43:06.411669,SYS_STATUS,,,,,,,0.233,-0.01,-1,
2026-03-10T19:43:06.415319,RC_CHANNELS,,,,,,,,,,0
2026-03-10T19:43:06.603111,ATTITUDE,,,,-0.009409571066498756,-0.011382361873984337,-0.33273839950561523
2026-03-10T19:43:06.603945,GLOBAL_POSITION_INT,0.0,0.0,2.46,,,
2026-03-10T19:43:06.605477,SYS_STATUS,,,,,,,0.235,-0.01,-1,
2026-03-10T19:43:06.610369,RC_CHANNELS,,,,,,,,,,0
2026-03-10T19:43:06.802620,ATTITUDE,,,,-0.00938017014414072,-0.011394713073968887,-0.3328276574611664
2026-03-10T19:43:06.803427,GLOBAL_POSITION_INT,0.0,0.0,2.28,,,
2026-03-10T19:43:06.804589,SYS_STATUS,,,,,,,0.234,-0.01,-1,
2026-03-10T19:43:06.807588,RC_CHANNELS,,,,,,,,,,0
2026-03-10T19:43:07.003108,ATTITUDE,,,,-0.009387828409671783,-0.011355132795870304,-0.3329109251499176
2026-03-10T19:43:07.004615,GLOBAL_POSITION_INT,0.0,0.0,2.36,,,
2026-03-10T19:43:07.006462,SYS_STATUS,,,,,,,0.232,-0.01,-1,
2026-03-10T19:43:07.009450,RC_CHANNELS,,,,,,,,,,0
2026-03-10T19:43:07.203306,ATTITUDE,,,,-0.009382271207869053,-0.011357326060533524,-0.3330168128013611
2026-03-10T19:43:07.204930,GLOBAL_POSITION_INT,0.0,0.0,2.44,,,
2026-03-10T19:43:07.206632,SYS_STATUS,,,,,,,0.233,-0.01,-1,
2026-03-10T19:43:07.211452,RC_CHANNELS,,,,,,,,,,0
2026-03-10T19:43:07.403041,ATTITUDE,,,,-0.009371494874358177,-0.011351541616022587,-0.3331126868724823
2026-03-10T19:43:07.404397,GLOBAL_POSITION_INT,0.0,0.0,2.44,,,
2026-03-10T19:43:07.406162,SYS_STATUS,,,,,,,0.235,-0.01,-1,
2026-03-10T19:43:07.409057,RC_CHANNELS,,,,,,,,,,0
2026-03-10T19:43:07.603086,ATTITUDE,,,,-0.009349705651402473,-0.011310923844575882,-0.3332143723964691
2026-03-10T19:43:07.603886,GLOBAL_POSITION_INT,0.0,0.0,2.3,,,
2026-03-10T19:43:07.604993,SYS_STATUS,,,,,,,0.233,-0.01,-1,
2026-03-10T19:43:07.609018,RC_CHANNELS,,,,,,,,,,0
2026-03-10T19:43:07.802510,ATTITUDE,,,,-0.009330155327916145,-0.011291971430182457,-0.333295077085495
2026-03-10T19:43:07.803522,GLOBAL_POSITION_INT,0.0,0.0,2.74,,,
2026-03-10T19:43:07.804685,SYS_STATUS,,,,,,,0.237,-0.01,-1,
2026-03-10T19:43:07.807656,RC_CHANNELS,,,,,,,,,,0
2026-03-10T19:43:08.002693,ATTITUDE,,,,-0.00932871364057064,-0.01124891359359026,-0.333377867937088
2026-03-10T19:43:08.004006,GLOBAL_POSITION_INT,0.0,0.0,2.5,,,
2026-03-10T19:43:08.005902,SYS_STATUS,,,,,,,0.235,-0.01,-1,
2026-03-10T19:43:08.010065,RC_CHANNELS,,,,,,,,,,0
2026-03-10T19:43:08.202552,ATTITUDE,,,,-0.009318598546087742,-0.011223155073821545,-0.3334880471229553
2026-03-10T19:43:08.203359,GLOBAL_POSITION_INT,0.0,0.0,2.63,,,
2026-03-10T19:43:08.205624,SYS_STATUS,,,,,,,0.233,-0.01,-1,
2026-03-10T19:43:08.208888,RC_CHANNELS,,,,,,,,,,0
2026-03-10T19:43:08.402805,ATTITUDE,,,,-0.009272675961256027,-0.011222618632018566,-0.33362528681755066
2026-03-10T19:43:08.403672,GLOBAL_POSITION_INT,0.0,0.0,2.2,,,
2026-03-10T19:43:08.405481,SYS_STATUS,,,,,,,0.231,-0.01,-1,
2026-03-10T19:43:08.410229,RC_CHANNELS,,,,,,,,,,0
2026-03-10T19:43:08.602328,ATTITUDE,,,,-0.009290559217333794,-0.011189134791493416,-0.3336964547634125
2026-03-10T19:43:08.603156,GLOBAL_POSITION_INT,0.0,0.0,2.42,,,
2026-03-10T19:43:08.604356,SYS_STATUS,,,,,,,0.232,-0.01,-1,
2026-03-10T19:43:08.607320,RC_CHANNELS,,,,,,,,,,0
2026-03-10T19:43:08.803357,ATTITUDE,,,,-0.009332568384706974,-0.011145251803100109,-0.3337979018688202
2026-03-10T19:43:08.804831,GLOBAL_POSITION_INT,0.0,0.0,2.2,,,
2026-03-10T19:43:08.807114,SYS_STATUS,,,,,,,0.233,-0.01,-1,
2026-03-10T19:43:08.810102,RC_CHANNELS,,,,,,,,,,0
2026-03-10T19:43:09.002432,ATTITUDE,,,,-0.00934551004320383,-0.011145819909870625,-0.33392664790153503
2026-03-10T19:43:09.003248,GLOBAL_POSITION_INT,0.0,0.0,2.34,,,
2026-03-10T19:43:09.004384,SYS_STATUS,,,,,,,0.233,-0.01,-1,
2026-03-10T19:43:09.007421,RC_CHANNELS,,,,,,,,,,0
2026-03-10T19:43:09.202624,ATTITUDE,,,,-0.009356116876006126,-0.011165053583681583,-0.33401259779930115
2026-03-10T19:43:09.203531,GLOBAL_POSITION_INT,0.0,0.0,2.36,,,
2026-03-10T19:43:09.205856,SYS_STATUS,,,,,,,0.234,-0.01,-1,
2026-03-10T19:43:09.210969,RC_CHANNELS,,,,,,,,,,0
2026-03-10T19:43:09.403009,ATTITUDE,,,,-0.009358752518892288,-0.011127236299216747,-0.33413243293762207
2026-03-10T19:43:09.403827,GLOBAL_POSITION_INT,0.0,0.0,2.42,,,
2026-03-10T19:43:09.404966,SYS_STATUS,,,,,,,0.232,-0.01,-1,
2026-03-10T19:43:09.407952,RC_CHANNELS,,,,,,,,,,0
2026-03-10T19:43:09.602736,ATTITUDE,,,,-0.009342918172478676,-0.011108582839369774,-0.3342248797416687
2026-03-10T19:43:09.603571,GLOBAL_POSITION_INT,0.0,0.0,2.56,,,
2026-03-10T19:43:09.604702,SYS_STATUS,,,,,,,0.233,-0.01,-1,
2026-03-10T19:43:09.607709,RC_CHANNELS,,,,,,,,,,0
2026-03-10T19:43:09.802751,ATTITUDE,,,,-0.009344353340566158,-0.011146558448672295,-0.33431464433670044
2026-03-10T19:43:09.803559,GLOBAL_POSITION_INT,0.0,0.0,2.47,,,
2026-03-10T19:43:09.804676,SYS_STATUS,,,,,,,0.233,-0.01,-1,
2026-03-10T19:43:09.807652,RC_CHANNELS,,,,,,,,,,0
2026-03-10T19:43:10.002695,ATTITUDE,,,,-0.009366954676806927,-0.011138896457850933,-0.3343909978866577
2026-03-10T19:43:10.003490,GLOBAL_POSITION_INT,0.0,0.0,2.57,,,
2026-03-10T19:43:10.004582,SYS_STATUS,,,,,,,0.231,-0.01,-1,
2026-03-10T19:43:10.007625,RC_CHANNELS,,,,,,,,,,0
2026-03-10T19:43:10.202710,ATTITUDE,,,,-0.009387737140059471,-0.011119896546006203,-0.3345009684562683
2026-03-10T19:43:10.203510,GLOBAL_POSITION_INT,0.0,0.0,2.6,,,
2026-03-10T19:43:10.204684,SYS_STATUS,,,,,,,0.233,-0.01,-1,
2026-03-10T19:43:10.208128,RC_CHANNELS,,,,,,,,,,0
2026-03-10T19:43:10.404068,ATTITUDE,,,,-0.00937722623348236,-0.011107821948826313,-0.3346230983734131
2026-03-10T19:43:10.404915,GLOBAL_POSITION_INT,0.0,0.0,2.26,,,
2026-03-10T19:43:10.405996,SYS_STATUS,,,,,,,0.237,-0.01,-1,
2026-03-10T19:43:10.408946,RC_CHANNELS,,,,,,,,,,0
2026-03-10T19:43:10.602783,ATTITUDE,,,,-0.009395424276590347,-0.011103309690952301,-0.3347480893135071
2026-03-10T19:43:10.603611,GLOBAL_POSITION_INT,0.0,0.0,2.54,,,
2026-03-10T19:43:10.604745,SYS_STATUS,,,,,,,0.235,-0.01,-1,
2026-03-10T19:43:10.607644,RC_CHANNELS,,,,,,,,,,0
2026-03-10T19:43:10.802689,ATTITUDE,,,,-0.009340173564851284,-0.011054915376007557,-0.3348967730998993
2026-03-10T19:43:10.803521,GLOBAL_POSITION_INT,0.0,0.0,2.36,,,
2026-03-10T19:43:10.804643,SYS_STATUS,,,,,,,0.233,-0.01,-1,
2026-03-10T19:43:10.808315,RC_CHANNELS,,,,,,,,,,0
2026-03-10T19:43:11.003477,ATTITUDE,,,,-0.009322690777480602,-0.011031243950128555,-0.3349763751029968
2026-03-10T19:43:11.004796,GLOBAL_POSITION_INT,0.0,0.0,2.61,,,
2026-03-10T19:43:11.005891,SYS_STATUS,,,,,,,0.232,-0.01,-1,
2026-03-10T19:43:11.008756,RC_CHANNELS,,,,,,,,,,0
2026-03-10T19:43:11.202522,ATTITUDE,,,,-0.009331483393907547,-0.01106308214366436,-0.3350463807582855
2026-03-10T19:43:11.203322,GLOBAL_POSITION_INT,0.0,0.0,2.59,,,
2026-03-10T19:43:11.204400,SYS_STATUS,,,,,,,0.232,-0.01,-1,
2026-03-10T19:43:11.207440,RC_CHANNELS,,,,,,,,,,0
2026-03-10T19:43:11.403893,ATTITUDE,,,,-0.009326906874775887,-0.011104054749011993,-0.3351406157016754
2026-03-10T19:43:11.405440,GLOBAL_POSITION_INT,0.0,0.0,2.54,,,
2026-03-10T19:43:11.406529,SYS_STATUS,,,,,,,0.238,-0.01,-1,
2026-03-10T19:43:11.410526,RC_CHANNELS,,,,,,,,,,0
2026-03-10T19:43:11.602860,ATTITUDE,,,,-0.009298678487539291,-0.011138970963656902,-0.3352468013763428
2026-03-10T19:43:11.603653,GLOBAL_POSITION_INT,0.0,0.0,2.43,,,
2026-03-10T19:43:11.604823,SYS_STATUS,,,,,,,0.232,-0.01,-1,
2026-03-10T19:43:11.607817,RC_CHANNELS,,,,,,,,,,0
2026-03-10T19:43:11.802650,ATTITUDE,,,,-0.009343232959508896,-0.011127865873277187,-0.33534306287765503
2026-03-10T19:43:11.803464,GLOBAL_POSITION_INT,0.0,0.0,2.31,,,
2026-03-10T19:43:11.804603,SYS_STATUS,,,,,,,0.232,-0.01,-1,
2026-03-10T19:43:11.807607,RC_CHANNELS,,,,,,,,,,0
2026-03-10T19:43:12.003627,ATTITUDE,,,,-0.009319804608821869,-0.011149175465106964,-0.33544105291366577
2026-03-10T19:43:12.004462,GLOBAL_POSITION_INT,0.0,0.0,2.33,,,
2026-03-10T19:43:12.005605,SYS_STATUS,,,,,,,0.233,-0.01,-1,
2026-03-10T19:43:12.008550,RC_CHANNELS,,,,,,,,,,0
2026-03-10T19:43:12.203766,ATTITUDE,,,,-0.009299583733081818,-0.011109862476587296,-0.3355236351490021
2026-03-10T19:43:12.205275,GLOBAL_POSITION_INT,0.0,0.0,2.1,,,
2026-03-10T19:43:12.206353,SYS_STATUS,,,,,,,0.231,-0.01,-1,
2026-03-10T19:43:12.211412,RC_CHANNELS,,,,,,,,,,0
2026-03-10T19:43:12.403311,ATTITUDE,,,,-0.009314634837210178,-0.011118777096271515,-0.3356151878833771
2026-03-10T19:43:12.404146,GLOBAL_POSITION_INT,0.0,0.0,2.57,,,
2026-03-10T19:43:12.405274,SYS_STATUS,,,,,,,0.232,-0.01,-1,
2026-03-10T19:43:12.408844,RC_CHANNELS,,,,,,,,,,0
2026-03-10T19:43:12.602989,ATTITUDE,,,,-0.009333519265055656,-0.01108283270150423,-0.3357018530368805
2026-03-10T19:43:12.603794,GLOBAL_POSITION_INT,0.0,0.0,2.5,,,
2026-03-10T19:43:12.604933,SYS_STATUS,,,,,,,0.237,-0.01,-1,
2026-03-10T19:43:12.607822,RC_CHANNELS,,,,,,,,,,0
2026-03-10T19:43:12.803722,ATTITUDE,,,,-0.009340914897620678,-0.011079543270170689,-0.33579668402671814
2026-03-10T19:43:12.804768,GLOBAL_POSITION_INT,0.0,0.0,2.39,,,
2026-03-10T19:43:12.805872,SYS_STATUS,,,,,,,0.234,-0.01,-1,
2026-03-10T19:43:12.809015,RC_CHANNELS,,,,,,,,,,0
2026-03-10T19:43:13.003046,ATTITUDE,,,,-0.00934910960495472,-0.01106727123260498,-0.3358677625656128
2026-03-10T19:43:13.003868,GLOBAL_POSITION_INT,0.0,0.0,2.37,,,
2026-03-10T19:43:13.005062,SYS_STATUS,,,,,,,0.233,-0.01,-1,
2026-03-10T19:43:13.008114,RC_CHANNELS,,,,,,,,,,0
2026-03-10T19:43:13.203834,ATTITUDE,,,,-0.009351118467748165,-0.011049900203943253,-0.3359566628932953
2026-03-10T19:43:13.205528,GLOBAL_POSITION_INT,0.0,0.0,2.43,,,
2026-03-10T19:43:13.207364,SYS_STATUS,,,,,,,0.233,-0.01,-1,
2026-03-10T19:43:13.211829,RC_CHANNELS,,,,,,,,,,0
2026-03-10T19:43:13.403221,ATTITUDE,,,,-0.00933490414172411,-0.01107768714427948,-0.33604568243026733
2026-03-10T19:43:13.404119,GLOBAL_POSITION_INT,0.0,0.0,2.04,,,
2026-03-10T19:43:13.405267,SYS_STATUS,,,,,,,0.233,-0.01,-1,
2026-03-10T19:43:13.408546,RC_CHANNELS,,,,,,,,,,0
2026-03-10T19:43:13.603955,ATTITUDE,,,,-0.00934562087059021,-0.011084451340138912,-0.33615726232528687
2026-03-10T19:43:13.605799,GLOBAL_POSITION_INT,0.0,0.0,2.61,,,
2026-03-10T19:43:13.607574,SYS_STATUS,,,,,,,0.233,-0.01,-1,
2026-03-10T19:43:13.611594,RC_CHANNELS,,,,,,,,,,0
2026-03-10T19:43:13.803114,ATTITUDE,,,,-0.00936166662722826,-0.011079560965299606,-0.33626168966293335
2026-03-10T19:43:13.803931,GLOBAL_POSITION_INT,0.0,0.0,2.29,,,
2026-03-10T19:43:13.805054,SYS_STATUS,,,,,,,0.234,-0.01,-1,
2026-03-10T19:43:13.808011,RC_CHANNELS,,,,,,,,,,0
2026-03-10T19:43:14.002902,ATTITUDE,,,,-0.009368553757667542,-0.011106690391898155,-0.33638039231300354
2026-03-10T19:43:14.003704,GLOBAL_POSITION_INT,0.0,0.0,2.39,,,
2026-03-10T19:43:14.004778,SYS_STATUS,,,,,,,0.234,-0.01,-1,
2026-03-10T19:43:14.008767,RC_CHANNELS,,,,,,,,,,0
2026-03-10T19:43:14.203455,ATTITUDE,,,,-0.00935056246817112,-0.011127333156764507,-0.33648326992988586
2026-03-10T19:43:14.204689,GLOBAL_POSITION_INT,0.0,0.0,2.11,,,
2026-03-10T19:43:14.206637,SYS_STATUS,,,,,,,0.234,-0.01,-1,
2026-03-10T19:43:14.210345,RC_CHANNELS,,,,,,,,,,0
2026-03-10T19:43:14.403311,ATTITUDE,,,,-0.009332477115094662,-0.011089058592915535,-0.33658596873283386
2026-03-10T19:43:14.404275,GLOBAL_POSITION_INT,0.0,0.0,2.38,,,
2026-03-10T19:43:14.405923,SYS_STATUS,,,,,,,0.229,-0.01,-1,
2026-03-10T19:43:14.409946,RC_CHANNELS,,,,,,,,,,0
2026-03-10T19:43:14.602868,ATTITUDE,,,,-0.009322325699031353,-0.011066514067351818,-0.3367149531841278
2026-03-10T19:43:14.603686,GLOBAL_POSITION_INT,0.0,0.0,2.62,,,
2026-03-10T19:43:14.604773,SYS_STATUS,,,,,,,0.233,-0.01,-1,
2026-03-10T19:43:14.607879,RC_CHANNELS,,,,,,,,,,0
2026-03-10T19:43:14.803298,ATTITUDE,,,,-0.009341025725007057,-0.01107783056795597,-0.3368072807788849
2026-03-10T19:43:14.804350,GLOBAL_POSITION_INT,0.0,0.0,2.3,,,
2026-03-10T19:43:14.806044,SYS_STATUS,,,,,,,0.233,-0.01,-1,
2026-03-10T19:43:14.808893,RC_CHANNELS,,,,,,,,,,0
2026-03-10T19:43:15.003745,ATTITUDE,,,,-0.009373625740408897,-0.011077288538217545,-0.3369229733943939
2026-03-10T19:43:15.005177,GLOBAL_POSITION_INT,0.0,0.0,2.24,,,
2026-03-10T19:43:15.007123,SYS_STATUS,,,,,,,0.234,-0.01,-1,
2026-03-10T19:43:15.011971,RC_CHANNELS,,,,,,,,,,0
2026-03-10T19:43:15.203935,ATTITUDE,,,,-0.009330281987786293,-0.011084147728979588,-0.3370416760444641
2026-03-10T19:43:15.204728,GLOBAL_POSITION_INT,0.0,0.0,2.46,,,
2026-03-10T19:43:15.206263,SYS_STATUS,,,,,,,0.234,-0.01,-1,
2026-03-10T19:43:15.211054,RC_CHANNELS,,,,,,,,,,0
2026-03-10T19:43:15.405079,ATTITUDE,,,,-0.009335702285170555,-0.011054380796849728,-0.3371484577655792
2026-03-10T19:43:15.406667,GLOBAL_POSITION_INT,0.0,0.0,2.61,,,
2026-03-10T19:43:15.407873,SYS_STATUS,,,,,,,0.233,-0.01,-1,
2026-03-10T19:43:15.410821,RC_CHANNELS,,,,,,,,,,0
2026-03-10T19:43:15.603799,ATTITUDE,,,,-0.009318768046796322,-0.011088315397500992,-0.3372466564178467
2026-03-10T19:43:15.605242,GLOBAL_POSITION_INT,0.0,0.0,2.3,,,
2026-03-10T19:43:15.607135,SYS_STATUS,,,,,,,0.235,-0.01,-1,
2026-03-10T19:43:15.611789,RC_CHANNELS,,,,,,,,,,0
2026-03-10T19:43:15.803285,ATTITUDE,,,,-0.00932384468615055,-0.011114193126559258,-0.3373558521270752
2026-03-10T19:43:15.804148,GLOBAL_POSITION_INT,0.0,0.0,2.37,,,
2026-03-10T19:43:15.805288,SYS_STATUS,,,,,,,0.241,-0.01,-1,
2026-03-10T19:43:15.808187,RC_CHANNELS,,,,,,,,,,0
2026-03-10T19:43:16.003278,ATTITUDE,,,,-0.009329119697213173,-0.011108272708952427,-0.3374258279800415
2026-03-10T19:43:16.004063,GLOBAL_POSITION_INT,0.0,0.0,2.16,,,
2026-03-10T19:43:16.006314,SYS_STATUS,,,,,,,0.237,-0.01,-1,
2026-03-10T19:43:16.010062,RC_CHANNELS,,,,,,,,,,0
2026-03-10T19:43:16.203998,ATTITUDE,,,,-0.009333465248346329,-0.011149979196488857,-0.33754590153694153
2026-03-10T19:43:16.204823,GLOBAL_POSITION_INT,0.0,0.0,2.09,,,
2026-03-10T19:43:16.206277,SYS_STATUS,,,,,,,0.233,-0.01,-1,
2026-03-10T19:43:16.209838,RC_CHANNELS,,,,,,,,,,0
2026-03-10T19:43:16.404607,ATTITUDE,,,,-0.009324437007308006,-0.011175337247550488,-0.33764123916625977
2026-03-10T19:43:16.405416,GLOBAL_POSITION_INT,0.0,0.0,2.2,,,
2026-03-10T19:43:16.406405,SYS_STATUS,,,,,,,0.239,-0.01,-1,
2026-03-10T19:43:16.412184,RC_CHANNELS,,,,,,,,,,0
2026-03-10T19:43:16.603843,ATTITUDE,,,,-0.009337964467704296,-0.011234482750296593,-0.33769771456718445
2026-03-10T19:43:16.604766,GLOBAL_POSITION_INT,0.0,0.0,2.35,,,
2026-03-10T19:43:16.606415,SYS_STATUS,,,,,,,0.233,-0.01,-1,
2026-03-10T19:43:16.611412,RC_CHANNELS,,,,,,,,,,0
2026-03-10T19:43:16.803372,ATTITUDE,,,,-0.009309499524533749,-0.011235243640840054,-0.3377726078033447
2026-03-10T19:43:16.804221,GLOBAL_POSITION_INT,0.0,0.0,2.28,,,
2026-03-10T19:43:16.805372,SYS_STATUS,,,,,,,0.236,-0.01,-1,
2026-03-10T19:43:16.808400,RC_CHANNELS,,,,,,,,,,0
2026-03-10T19:43:17.003410,ATTITUDE,,,,-0.009295055642724037,-0.011261754669249058,-0.33786240220069885
2026-03-10T19:43:17.004248,GLOBAL_POSITION_INT,0.0,0.0,2.3,,,
2026-03-10T19:43:17.005381,SYS_STATUS,,,,,,,0.232,-0.01,-1,
2026-03-10T19:43:17.008319,RC_CHANNELS,,,,,,,,,,0
2026-03-10T19:43:17.203347,ATTITUDE,,,,-0.009274344891309738,-0.01124751940369606,-0.3379618227481842
2026-03-10T19:43:17.204165,GLOBAL_POSITION_INT,0.0,0.0,2.32,,,
2026-03-10T19:43:17.205445,SYS_STATUS,,,,,,,0.231,-0.01,-1,
2026-03-10T19:43:17.208421,RC_CHANNELS,,,,,,,,,,0
2026-03-10T19:43:17.404471,ATTITUDE,,,,-0.009297357872128487,-0.011238433420658112,-0.3380432426929474
2026-03-10T19:43:17.405310,GLOBAL_POSITION_INT,0.0,0.0,2.52,,,
2026-03-10T19:43:17.406411,SYS_STATUS,,,,,,,0.234,-0.01,-1,
2026-03-10T19:43:17.409476,RC_CHANNELS,,,,,,,,,,0
2026-03-10T19:43:17.604482,ATTITUDE,,,,-0.009304441511631012,-0.011212864890694618,-0.3382129371166229
2026-03-10T19:43:17.606134,GLOBAL_POSITION_INT,0.0,0.0,2.31,,,
2026-03-10T19:43:17.607545,SYS_STATUS,,,,,,,0.233,-0.01,-1,
2026-03-10T19:43:17.611404,RC_CHANNELS,,,,,,,,,,0
2026-03-10T19:43:17.803124,ATTITUDE,,,,-0.009296359494328499,-0.011211775243282318,-0.3383445143699646
2026-03-10T19:43:17.803931,GLOBAL_POSITION_INT,0.0,0.0,2.34,,,
2026-03-10T19:43:17.805054,SYS_STATUS,,,,,,,0.23,-0.01,-1,
2026-03-10T19:43:17.807977,RC_CHANNELS,,,,,,,,,,0
2026-03-10T19:43:18.004691,ATTITUDE,,,,-0.00929590780287981,-0.011165994219481945,-0.33844760060310364
2026-03-10T19:43:18.006404,GLOBAL_POSITION_INT,0.0,0.0,2.36,,,
2026-03-10T19:43:18.007591,SYS_STATUS,,,,,,,0.233,-0.01,-1,
2026-03-10T19:43:18.012634,RC_CHANNELS,,,,,,,,,,0
2026-03-10T19:43:18.203871,ATTITUDE,,,,-0.00930554699152708,-0.011152406223118305,-0.3385310769081116
2026-03-10T19:43:18.204762,GLOBAL_POSITION_INT,0.0,0.0,2.07,,,
2026-03-10T19:43:18.205879,SYS_STATUS,,,,,,,0.232,-0.01,-1,
2026-03-10T19:43:18.210314,RC_CHANNELS,,,,,,,,,,0
2026-03-10T19:43:18.404332,ATTITUDE,,,,-0.009301497600972652,-0.011127505451440811,-0.33864837884902954
2026-03-10T19:43:18.405489,GLOBAL_POSITION_INT,0.0,0.0,2.33,,,
2026-03-10T19:43:18.406580,SYS_STATUS,,,,,,,0.233,-0.01,-1,
2026-03-10T19:43:18.409478,RC_CHANNELS,,,,,,,,,,0
2026-03-10T19:43:18.604296,ATTITUDE,,,,-0.009296719916164875,-0.011133198626339436,-0.3388116657733917
2026-03-10T19:43:18.606069,GLOBAL_POSITION_INT,0.0,0.0,2.24,,,
2026-03-10T19:43:18.608086,SYS_STATUS,,,,,,,0.236,-0.01,-1,
2026-03-10T19:43:18.612497,RC_CHANNELS,,,,,,,,,,0
2026-03-10T19:43:18.804227,ATTITUDE,,,,-0.009249183349311352,-0.011128331534564495,-0.33889341354370117
2026-03-10T19:43:18.805765,GLOBAL_POSITION_INT,0.0,0.0,2.33,,,
2026-03-10T19:43:18.807834,SYS_STATUS,,,,,,,0.235,-0.01,-1,
2026-03-10T19:43:18.811540,RC_CHANNELS,,,,,,,,,,0
2026-03-10T19:43:19.004675,ATTITUDE,,,,-0.009244256652891636,-0.011128615587949753,-0.3390127420425415
2026-03-10T19:43:19.006329,GLOBAL_POSITION_INT,0.0,0.0,2.33,,,
2026-03-10T19:43:19.007503,SYS_STATUS,,,,,,,0.233,-0.01,-1,
2026-03-10T19:43:19.010424,RC_CHANNELS,,,,,,,,,,0
2026-03-10T19:43:19.204650,ATTITUDE,,,,-0.009248122572898865,-0.011134495958685875,-0.3391108810901642
2026-03-10T19:43:19.205941,GLOBAL_POSITION_INT,0.0,0.0,2.44,,,
2026-03-10T19:43:19.207217,SYS_STATUS,,,,,,,0.239,-0.01,-1,
2026-03-10T19:43:19.212645,RC_CHANNELS,,,,,,,,,,0
2026-03-10T19:43:19.403817,ATTITUDE,,,,-0.009230655618011951,-0.011106832884252071,-0.3392001688480377
2026-03-10T19:43:19.404757,GLOBAL_POSITION_INT,0.0,0.0,2.36,,,
2026-03-10T19:43:19.405905,SYS_STATUS,,,,,,,0.235,-0.01,-1,
2026-03-10T19:43:19.409673,RC_CHANNELS,,,,,,,,,,0
2026-03-10T19:43:19.604379,ATTITUDE,,,,-0.009250450879335403,-0.0111162718385458,-0.3392866551876068
2026-03-10T19:43:19.606168,GLOBAL_POSITION_INT,0.0,0.0,2.36,,,
2026-03-10T19:43:19.607584,SYS_STATUS,,,,,,,0.233,-0.01,-1,
2026-03-10T19:43:19.612089,RC_CHANNELS,,,,,,,,,,0
2026-03-10T19:43:19.803546,ATTITUDE,,,,-0.009260930120944977,-0.011097311042249203,-0.33939042687416077
2026-03-10T19:43:19.804367,GLOBAL_POSITION_INT,0.0,0.0,2.43,,,
2026-03-10T19:43:19.805521,SYS_STATUS,,,,,,,0.228,-0.01,-1,
2026-03-10T19:43:19.808564,RC_CHANNELS,,,,,,,,,,0
2026-03-10T19:43:20.004155,ATTITUDE,,,,-0.009299180470407009,-0.011132734827697277,-0.3395272195339203
2026-03-10T19:43:20.005071,GLOBAL_POSITION_INT,0.0,0.0,2.3,,,
2026-03-10T19:43:20.006205,SYS_STATUS,,,,,,,0.237,-0.01,-1,
2026-03-10T19:43:20.010376,RC_CHANNELS,,,,,,,,,,0
2026-03-10T19:43:20.203644,ATTITUDE,,,,-0.009289264678955078,-0.011115851812064648,-0.33964988589286804
2026-03-10T19:43:20.204477,GLOBAL_POSITION_INT,0.0,0.0,2.22,,,
2026-03-10T19:43:20.205609,SYS_STATUS,,,,,,,0.235,-0.01,-1,
2026-03-10T19:43:20.209955,RC_CHANNELS,,,,,,,,,,0
2026-03-10T19:43:20.408673,ATTITUDE,,,,-0.009284131228923798,-0.01110716164112091,-0.3397427797317505
2026-03-10T19:43:20.409698,GLOBAL_POSITION_INT,0.0,0.0,2.36,,,
2026-03-10T19:43:20.411263,SYS_STATUS,,,,,,,0.231,-0.01,-1,
2026-03-10T19:43:20.414384,RC_CHANNELS,,,,,,,,,,0
2026-03-10T19:43:20.604687,ATTITUDE,,,,-0.009262996725738049,-0.011082787066698074,-0.3398461937904358
2026-03-10T19:43:20.606312,GLOBAL_POSITION_INT,0.0,0.0,2.35,,,
2026-03-10T19:43:20.607737,SYS_STATUS,,,,,,,0.234,-0.01,-1,
2026-03-10T19:43:20.612643,RC_CHANNELS,,,,,,,,,,0
2026-03-10T19:43:20.803765,ATTITUDE,,,,-0.009271997027099133,-0.011068809777498245,-0.3399551510810852
2026-03-10T19:43:20.804809,GLOBAL_POSITION_INT,0.0,0.0,2.33,,,
2026-03-10T19:43:20.807050,SYS_STATUS,,,,,,,0.232,-0.01,-1,
2026-03-10T19:43:20.810507,RC_CHANNELS,,,,,,,,,,0
2026-03-10T19:43:21.004431,ATTITUDE,,,,-0.009270737878978252,-0.011088991537690163,-0.3400387465953827
2026-03-10T19:43:21.006066,GLOBAL_POSITION_INT,0.0,0.0,2.3,,,
2026-03-10T19:43:21.007844,SYS_STATUS,,,,,,,0.235,-0.01,-1,
2026-03-10T19:43:21.010826,RC_CHANNELS,,,,,,,,,,0
2026-03-10T19:43:21.204116,ATTITUDE,,,,-0.00923190824687481,-0.011095237918198109,-0.34014299511909485
2026-03-10T19:43:21.205112,GLOBAL_POSITION_INT,0.0,0.0,2.34,,,
2026-03-10T19:43:21.207327,SYS_STATUS,,,,,,,0.233,-0.01,-1,
2026-03-10T19:43:21.212180,RC_CHANNELS,,,,,,,,,,0
2026-03-10T19:43:21.404836,ATTITUDE,,,,-0.009220931679010391,-0.011072318069636822,-0.3402436077594757
2026-03-10T19:43:21.406355,GLOBAL_POSITION_INT,0.0,0.0,2.54,,,
2026-03-10T19:43:21.407684,SYS_STATUS,,,,,,,0.232,-0.01,-1,
2026-03-10T19:43:21.412266,RC_CHANNELS,,,,,,,,,,0
2026-03-10T19:43:21.604447,ATTITUDE,,,,-0.00923171080648899,-0.011095920577645302,-0.3403296172618866
2026-03-10T19:43:21.605499,GLOBAL_POSITION_INT,0.0,0.0,2.43,,,
2026-03-10T19:43:21.606648,SYS_STATUS,,,,,,,0.231,-0.01,-1,
2026-03-10T19:43:21.609750,RC_CHANNELS,,,,,,,,,,0
2026-03-10T19:43:21.804068,ATTITUDE,,,,-0.009249594993889332,-0.011085829697549343,-0.34043651819229126
2026-03-10T19:43:21.804886,GLOBAL_POSITION_INT,0.0,0.0,2.66,,,
2026-03-10T19:43:21.806067,SYS_STATUS,,,,,,,0.234,-0.01,-1,
2026-03-10T19:43:21.809057,RC_CHANNELS,,,,,,,,,,0
2026-03-10T19:43:22.003666,ATTITUDE,,,,-0.009277249686419964,-0.011120998300611973,-0.34056711196899414
2026-03-10T19:43:22.004476,GLOBAL_POSITION_INT,0.0,0.0,2.38,,,
2026-03-10T19:43:22.005628,SYS_STATUS,,,,,,,0.233,-0.01,-1,
2026-03-10T19:43:22.008726,RC_CHANNELS,,,,,,,,,,0
2026-03-10T19:43:22.204705,ATTITUDE,,,,-0.009263774380087852,-0.01111341081559658,-0.3406461179256439
2026-03-10T19:43:22.206540,GLOBAL_POSITION_INT,0.0,0.0,2.2,,,
2026-03-10T19:43:22.208718,SYS_STATUS,,,,,,,0.233,-0.01,-1,
2026-03-10T19:43:22.212784,RC_CHANNELS,,,,,,,,,,0
2026-03-10T19:43:22.404739,ATTITUDE,,,,-0.009271694347262383,-0.011123732663691044,-0.3407386243343353
2026-03-10T19:43:22.405551,GLOBAL_POSITION_INT,0.0,0.0,2.37,,,
2026-03-10T19:43:22.407161,SYS_STATUS,,,,,,,0.234,-0.01,-1,
2026-03-10T19:43:22.412489,RC_CHANNELS,,,,,,,,,,0
2026-03-10T19:43:22.603738,ATTITUDE,,,,-0.009303867816925049,-0.01114870235323906,-0.3408302366733551
2026-03-10T19:43:22.604867,GLOBAL_POSITION_INT,0.0,0.0,2.42,,,
2026-03-10T19:43:22.606013,SYS_STATUS,,,,,,,0.232,-0.01,-1,
2026-03-10T19:43:22.610434,RC_CHANNELS,,,,,,,,,,0
2026-03-10T19:43:22.804772,ATTITUDE,,,,-0.009301695041358471,-0.011118952184915543,-0.34094205498695374
2026-03-10T19:43:22.806598,GLOBAL_POSITION_INT,0.0,0.0,2.45,,,
2026-03-10T19:43:22.808820,SYS_STATUS,,,,,,,0.234,-0.01,-1,
2026-03-10T19:43:22.812858,RC_CHANNELS,,,,,,,,,,0
2026-03-10T19:43:23.004852,ATTITUDE,,,,-0.009318610653281212,-0.011118914000689983,-0.3410091698169708
2026-03-10T19:43:23.006506,GLOBAL_POSITION_INT,0.0,0.0,2.4,,,
2026-03-10T19:43:23.008009,SYS_STATUS,,,,,,,0.235,-0.01,-1,
2026-03-10T19:43:23.012859,RC_CHANNELS,,,,,,,,,,0
2026-03-10T19:43:23.204283,ATTITUDE,,,,-0.009368433617055416,-0.011144198477268219,-0.3411222994327545
2026-03-10T19:43:23.205083,GLOBAL_POSITION_INT,0.0,0.0,2.48,,,
2026-03-10T19:43:23.206194,SYS_STATUS,,,,,,,0.233,-0.01,-1,
2026-03-10T19:43:23.210082,RC_CHANNELS,,,,,,,,,,0
2026-03-10T19:43:23.404087,ATTITUDE,,,,-0.009353972040116787,-0.01113814115524292,-0.34121400117874146
2026-03-10T19:43:23.405117,GLOBAL_POSITION_INT,0.0,0.0,2.57,,,
2026-03-10T19:43:23.406768,SYS_STATUS,,,,,,,0.236,-0.01,-1,
2026-03-10T19:43:23.409631,RC_CHANNELS,,,,,,,,,,0
2026-03-10T19:43:23.604450,ATTITUDE,,,,-0.009369664825499058,-0.011112164705991745,-0.3412889540195465
2026-03-10T19:43:23.605589,GLOBAL_POSITION_INT,0.0,0.0,2.45,,,
2026-03-10T19:43:23.607217,SYS_STATUS,,,,,,,0.235,-0.01,-1,
2026-03-10T19:43:23.612157,RC_CHANNELS,,,,,,,,,,0
2026-03-10T19:43:23.804818,ATTITUDE,,,,-0.009384057484567165,-0.011111807078123093,-0.34138229489326477
2026-03-10T19:43:23.806275,GLOBAL_POSITION_INT,0.0,0.0,2.63,,,
2026-03-10T19:43:23.807555,SYS_STATUS,,,,,,,0.236,-0.01,-1,
2026-03-10T19:43:23.810494,RC_CHANNELS,,,,,,,,,,0
2026-03-10T19:43:24.004961,ATTITUDE,,,,-0.009396427311003208,-0.011084025725722313,-0.3414871394634247
2026-03-10T19:43:24.006786,GLOBAL_POSITION_INT,0.0,0.0,2.2,,,
2026-03-10T19:43:24.009043,SYS_STATUS,,,,,,,0.236,-0.01,-1,
2026-03-10T19:43:24.012976,RC_CHANNELS,,,,,,,,,,0
2026-03-10T19:43:24.203995,ATTITUDE,,,,-0.009385255165398121,-0.01110520027577877,-0.341593861579895
2026-03-10T19:43:24.204895,GLOBAL_POSITION_INT,0.0,0.0,1.96,,,
2026-03-10T19:43:24.206033,SYS_STATUS,,,,,,,0.234,-0.01,-1,
2026-03-10T19:43:24.209647,RC_CHANNELS,,,,,,,,,,0
2026-03-10T19:43:24.405834,ATTITUDE,,,,-0.00940018706023693,-0.011113207787275314,-0.34169164299964905
2026-03-10T19:43:24.407239,GLOBAL_POSITION_INT,0.0,0.0,2.37,,,
2026-03-10T19:43:24.408287,SYS_STATUS,,,,,,,0.234,-0.01,-1,
2026-03-10T19:43:24.412410,RC_CHANNELS,,,,,,,,,,0
2026-03-10T19:43:24.604531,ATTITUDE,,,,-0.009448266588151455,-0.011121525429189205,-0.3418450653553009
2026-03-10T19:43:24.606499,GLOBAL_POSITION_INT,0.0,0.0,2.42,,,
2026-03-10T19:43:24.607666,SYS_STATUS,,,,,,,0.232,-0.01,-1,
2026-03-10T19:43:24.611999,RC_CHANNELS,,,,,,,,,,0
2026-03-10T19:43:24.804756,ATTITUDE,,,,-0.009420664981007576,-0.011114772409200668,-0.34194785356521606
2026-03-10T19:43:24.806060,GLOBAL_POSITION_INT,0.0,0.0,2.23,,,
2026-03-10T19:43:24.807476,SYS_STATUS,,,,,,,0.233,-0.01,-1,
2026-03-10T19:43:24.812793,RC_CHANNELS,,,,,,,,,,0
2026-03-10T19:43:25.004085,ATTITUDE,,,,-0.009428524412214756,-0.011108594946563244,-0.3420260548591614
2026-03-10T19:43:25.005610,GLOBAL_POSITION_INT,0.0,0.0,2.56,,,
2026-03-10T19:43:25.007595,SYS_STATUS,,,,,,,0.232,-0.01,-1,
2026-03-10T19:43:25.011330,RC_CHANNELS,,,,,,,,,,0
2026-03-10T19:43:25.204812,ATTITUDE,,,,-0.009424910880625248,-0.01108570210635662,-0.34208253026008606
2026-03-10T19:43:25.205629,GLOBAL_POSITION_INT,0.0,0.0,2.59,,,
2026-03-10T19:43:25.207103,SYS_STATUS,,,,,,,0.239,-0.01,-1,
2026-03-10T19:43:25.211036,RC_CHANNELS,,,,,,,,,,0
2026-03-10T19:43:25.405220,ATTITUDE,,,,-0.009418446570634842,-0.011090350337326527,-0.34220221638679504
2026-03-10T19:43:25.406063,GLOBAL_POSITION_INT,0.0,0.0,2.18,,,
2026-03-10T19:43:25.407273,SYS_STATUS,,,,,,,0.234,-0.01,-1,
2026-03-10T19:43:25.412061,RC_CHANNELS,,,,,,,,,,0
2026-03-10T19:43:25.604653,ATTITUDE,,,,-0.009424892254173756,-0.011086967773735523,-0.34231215715408325
2026-03-10T19:43:25.606171,GLOBAL_POSITION_INT,0.0,0.0,2.39,,,
2026-03-10T19:43:25.607721,SYS_STATUS,,,,,,,0.234,-0.01,-1,
2026-03-10T19:43:25.610608,RC_CHANNELS,,,,,,,,,,0
2026-03-10T19:43:25.804246,ATTITUDE,,,,-0.009394219145178795,-0.011140556074678898,-0.3424321711063385
2026-03-10T19:43:25.805679,GLOBAL_POSITION_INT,0.0,0.0,2.33,,,
2026-03-10T19:43:25.807317,SYS_STATUS,,,,,,,0.234,-0.01,-1,
2026-03-10T19:43:25.811747,RC_CHANNELS,,,,,,,,,,0
2026-03-10T19:43:26.004436,ATTITUDE,,,,-0.00938404444605112,-0.011095304973423481,-0.3425138294696808
2026-03-10T19:43:26.005809,GLOBAL_POSITION_INT,0.0,0.0,2.1,,,
2026-03-10T19:43:26.007588,SYS_STATUS,,,,,,,0.234,-0.01,-1,
2026-03-10T19:43:26.011550,RC_CHANNELS,,,,,,,,,,0
2026-03-10T19:43:26.205075,ATTITUDE,,,,-0.009364663623273373,-0.011068391613662243,-0.3426218628883362
2026-03-10T19:43:26.206967,GLOBAL_POSITION_INT,0.0,0.0,2.6,,,
2026-03-10T19:43:26.208178,SYS_STATUS,,,,,,,0.232,-0.01,-1,
2026-03-10T19:43:26.211124,RC_CHANNELS,,,,,,,,,,0
2026-03-10T19:43:26.405929,ATTITUDE,,,,-0.009362609125673771,-0.011038420721888542,-0.3427215814590454
2026-03-10T19:43:26.407363,GLOBAL_POSITION_INT,0.0,0.0,2.39,,,
2026-03-10T19:43:26.409451,SYS_STATUS,,,,,,,0.231,-0.01,-1,
2026-03-10T19:43:26.413634,RC_CHANNELS,,,,,,,,,,0
2026-03-10T19:43:26.604780,ATTITUDE,,,,-0.009378940798342228,-0.011021643877029419,-0.3428404927253723
2026-03-10T19:43:26.606006,GLOBAL_POSITION_INT,0.0,0.0,2.22,,,
2026-03-10T19:43:26.607524,SYS_STATUS,,,,,,,0.235,-0.01,-1,
2026-03-10T19:43:26.610622,RC_CHANNELS,,,,,,,,,,0
2026-03-10T19:43:26.804921,ATTITUDE,,,,-0.009368727914988995,-0.011045924387872219,-0.3429816961288452
2026-03-10T19:43:26.806063,GLOBAL_POSITION_INT,0.0,0.0,2.25,,,
2026-03-10T19:43:26.807565,SYS_STATUS,,,,,,,0.237,-0.01,-1,
2026-03-10T19:43:26.812533,RC_CHANNELS,,,,,,,,,,0
2026-03-10T19:43:27.004828,ATTITUDE,,,,-0.009341171011328697,-0.011059541255235672,-0.34307825565338135
2026-03-10T19:43:27.005639,GLOBAL_POSITION_INT,0.0,0.0,2.34,,,
2026-03-10T19:43:27.007201,SYS_STATUS,,,,,,,0.236,-0.01,-1,
2026-03-10T19:43:27.012063,RC_CHANNELS,,,,,,,,,,0
2026-03-10T19:43:27.204149,ATTITUDE,,,,-0.009326563216745853,-0.011026408523321152,-0.34317657351493835
2026-03-10T19:43:27.204965,GLOBAL_POSITION_INT,0.0,0.0,2.45,,,
2026-03-10T19:43:27.206354,SYS_STATUS,,,,,,,0.231,-0.01,-1,
2026-03-10T19:43:27.209286,RC_CHANNELS,,,,,,,,,,0
2026-03-10T19:43:27.404176,ATTITUDE,,,,-0.009323051199316978,-0.011010388843715191,-0.34326863288879395
2026-03-10T19:43:27.404968,GLOBAL_POSITION_INT,0.0,0.0,2.47,,,
2026-03-10T19:43:27.406094,SYS_STATUS,,,,,,,0.23,-0.01,-1,
2026-03-10T19:43:27.409169,RC_CHANNELS,,,,,,,,,,0
2026-03-10T19:43:27.605205,ATTITUDE,,,,-0.009304763749241829,-0.010999998077750206,-0.343359112739563
2026-03-10T19:43:27.607046,GLOBAL_POSITION_INT,0.0,0.0,2.27,,,
2026-03-10T19:43:27.608902,SYS_STATUS,,,,,,,0.234,-0.01,-1,
2026-03-10T19:43:27.613257,RC_CHANNELS,,,,,,,,,,0
2026-03-10T19:43:27.804157,ATTITUDE,,,,-0.009295273572206497,-0.010991514660418034,-0.343485951423645
2026-03-10T19:43:27.805120,GLOBAL_POSITION_INT,0.0,0.0,2.55,,,
2026-03-10T19:43:27.807337,SYS_STATUS,,,,,,,0.236,-0.01,-1,
2026-03-10T19:43:27.811282,RC_CHANNELS,,,,,,,,,,0
2026-03-10T19:43:28.004552,ATTITUDE,,,,-0.00929197482764721,-0.011010649614036083,-0.34358274936676025
2026-03-10T19:43:28.005913,GLOBAL_POSITION_INT,0.0,0.0,2.35,,,
2026-03-10T19:43:28.008122,SYS_STATUS,,,,,,,0.234,-0.01,-1,
2026-03-10T19:43:28.011585,RC_CHANNELS,,,,,,,,,,0
2026-03-10T19:43:28.204836,ATTITUDE,,,,-0.009297817014157772,-0.010996175929903984,-0.34365952014923096
2026-03-10T19:43:28.206242,GLOBAL_POSITION_INT,0.0,0.0,2.36,,,
2026-03-10T19:43:28.208165,SYS_STATUS,,,,,,,0.233,-0.01,-1,
2026-03-10T19:43:28.212773,RC_CHANNELS,,,,,,,,,,0
2026-03-10T19:43:28.405418,ATTITUDE,,,,-0.009282181039452553,-0.01097245141863823,-0.34376150369644165
2026-03-10T19:43:28.407054,GLOBAL_POSITION_INT,0.0,0.0,2.39,,,
2026-03-10T19:43:28.408194,SYS_STATUS,,,,,,,0.232,-0.01,-1,
2026-03-10T19:43:28.411410,RC_CHANNELS,,,,,,,,,,0
2026-03-10T19:43:28.604724,ATTITUDE,,,,-0.009298164397478104,-0.010974287986755371,-0.3438887298107147
2026-03-10T19:43:28.605674,GLOBAL_POSITION_INT,0.0,0.0,2.25,,,
2026-03-10T19:43:28.606813,SYS_STATUS,,,,,,,0.236,-0.01,-1,
2026-03-10T19:43:28.610557,RC_CHANNELS,,,,,,,,,,0
2026-03-10T19:43:28.804924,ATTITUDE,,,,-0.009325286373496056,-0.010967585258185863,-0.3439898192882538
2026-03-10T19:43:28.806457,GLOBAL_POSITION_INT,0.0,0.0,2.22,,,
2026-03-10T19:43:28.808406,SYS_STATUS,,,,,,,0.233,-0.01,-1,
2026-03-10T19:43:28.812935,RC_CHANNELS,,,,,,,,,,0
2026-03-10T19:43:29.004742,ATTITUDE,,,,-0.009295826777815819,-0.01096424926072359,-0.34410202503204346
2026-03-10T19:43:29.005767,GLOBAL_POSITION_INT,0.0,0.0,2.34,,,
2026-03-10T19:43:29.007138,SYS_STATUS,,,,,,,0.236,-0.01,-1,
2026-03-10T19:43:29.010414,RC_CHANNELS,,,,,,,,,,0
2026-03-10T19:43:29.203979,ATTITUDE,,,,-0.009283855557441711,-0.01096038892865181,-0.3442089259624481
2026-03-10T19:43:29.204784,GLOBAL_POSITION_INT,0.0,0.0,2.33,,,
2026-03-10T19:43:29.205925,SYS_STATUS,,,,,,,0.233,-0.01,-1,
2026-03-10T19:43:29.208985,RC_CHANNELS,,,,,,,,,,0
2026-03-10T19:43:29.405352,ATTITUDE,,,,-0.009265552274882793,-0.010970553383231163,-0.34430307149887085
2026-03-10T19:43:29.406191,GLOBAL_POSITION_INT,0.0,0.0,2.36,,,
2026-03-10T19:43:29.407520,SYS_STATUS,,,,,,,0.234,-0.01,-1,
2026-03-10T19:43:29.410709,RC_CHANNELS,,,,,,,,,,0
2026-03-10T19:43:29.604469,ATTITUDE,,,,-0.009268882684409618,-0.010958977974951267,-0.3444272577762604
2026-03-10T19:43:29.605742,GLOBAL_POSITION_INT,0.0,0.0,2.53,,,
2026-03-10T19:43:29.607477,SYS_STATUS,,,,,,,0.232,-0.01,-1,
2026-03-10T19:43:29.611912,RC_CHANNELS,,,,,,,,,,0
2026-03-10T19:43:29.804820,ATTITUDE,,,,-0.009247259236872196,-0.010952413082122803,-0.3445391356945038
2026-03-10T19:43:29.805819,GLOBAL_POSITION_INT,0.0,0.0,2.57,,,
2026-03-10T19:43:29.807368,SYS_STATUS,,,,,,,0.231,-0.01,-1,
2026-03-10T19:43:29.811110,RC_CHANNELS,,,,,,,,,,0
2026-03-10T19:43:30.004235,ATTITUDE,,,,-0.009240280836820602,-0.010926027782261372,-0.3446563184261322
2026-03-10T19:43:30.005110,GLOBAL_POSITION_INT,0.0,0.0,2.31,,,
2026-03-10T19:43:30.006226,SYS_STATUS,,,,,,,0.238,-0.01,-1,
2026-03-10T19:43:30.010169,RC_CHANNELS,,,,,,,,,,0
2026-03-10T19:43:30.205160,ATTITUDE,,,,-0.009245810098946095,-0.010914639569818974,-0.34474554657936096
2026-03-10T19:43:30.206222,GLOBAL_POSITION_INT,0.0,0.0,2.6,,,
2026-03-10T19:43:30.208418,SYS_STATUS,,,,,,,0.234,-0.01,-1,
2026-03-10T19:43:30.212665,RC_CHANNELS,,,,,,,,,,0
2026-03-10T19:43:30.405880,ATTITUDE,,,,-0.00924944132566452,-0.010892092250287533,-0.3448300063610077
2026-03-10T19:43:30.407390,GLOBAL_POSITION_INT,0.0,0.0,2.62,,,
2026-03-10T19:43:30.408604,SYS_STATUS,,,,,,,0.233,-0.01,-1,
2026-03-10T19:43:30.413318,RC_CHANNELS,,,,,,,,,,0
2026-03-10T19:43:30.605051,ATTITUDE,,,,-0.009273987263441086,-0.01089240238070488,-0.3449387848377228
2026-03-10T19:43:30.605901,GLOBAL_POSITION_INT,0.0,0.0,2.66,,,
2026-03-10T19:43:30.607194,SYS_STATUS,,,,,,,0.236,-0.01,-1,
2026-03-10T19:43:30.611379,RC_CHANNELS,,,,,,,,,,0
2026-03-10T19:43:30.805261,ATTITUDE,,,,-0.009312636218965054,-0.010903378017246723,-0.34505149722099304
2026-03-10T19:43:30.806975,GLOBAL_POSITION_INT,0.0,0.0,2.16,,,
2026-03-10T19:43:30.808888,SYS_STATUS,,,,,,,0.236,-0.01,-1,
2026-03-10T19:43:30.813379,RC_CHANNELS,,,,,,,,,,0
2026-03-10T19:43:31.005403,ATTITUDE,,,,-0.00931011326611042,-0.010885427705943584,-0.3451724052429199
2026-03-10T19:43:31.007068,GLOBAL_POSITION_INT,0.0,0.0,2.44,,,
2026-03-10T19:43:31.008991,SYS_STATUS,,,,,,,0.236,-0.01,-1,
2026-03-10T19:43:31.013371,RC_CHANNELS,,,,,,,,,,0
2026-03-10T19:43:31.204756,ATTITUDE,,,,-0.009307350032031536,-0.010915777646005154,-0.34528839588165283
2026-03-10T19:43:31.205594,GLOBAL_POSITION_INT,0.0,0.0,2.3,,,
2026-03-10T19:43:31.206737,SYS_STATUS,,,,,,,0.234,-0.01,-1,
2026-03-10T19:43:31.210346,RC_CHANNELS,,,,,,,,,,0
2026-03-10T19:43:31.405481,ATTITUDE,,,,-0.009296351112425327,-0.010939731262624264,-0.34539487957954407
2026-03-10T19:43:31.406308,GLOBAL_POSITION_INT,0.0,0.0,2.4,,,
2026-03-10T19:43:31.407808,SYS_STATUS,,,,,,,0.232,-0.01,-1,
2026-03-10T19:43:31.411029,RC_CHANNELS,,,,,,,,,,0
2026-03-10T19:43:31.604733,ATTITUDE,,,,-0.009291903115808964,-0.010968632996082306,-0.3454653024673462
2026-03-10T19:43:31.605814,GLOBAL_POSITION_INT,0.0,0.0,2.05,,,
2026-03-10T19:43:31.607595,SYS_STATUS,,,,,,,0.231,-0.01,-1,
2026-03-10T19:43:31.611474,RC_CHANNELS,,,,,,,,,,0
2026-03-10T19:43:31.804576,ATTITUDE,,,,-0.009273352101445198,-0.010971186682581902,-0.3455617129802704
2026-03-10T19:43:31.805466,GLOBAL_POSITION_INT,0.0,0.0,2.59,,,
2026-03-10T19:43:31.807362,SYS_STATUS,,,,,,,0.232,-0.01,-1,
2026-03-10T19:43:31.811915,RC_CHANNELS,,,,,,,,,,0
2026-03-10T19:43:32.004447,ATTITUDE,,,,-0.009276792407035828,-0.010990101844072342,-0.3456539511680603
2026-03-10T19:43:32.005420,GLOBAL_POSITION_INT,0.0,0.0,2.5,,,
2026-03-10T19:43:32.006608,SYS_STATUS,,,,,,,0.233,-0.01,-1,
2026-03-10T19:43:32.009684,RC_CHANNELS,,,,,,,,,,0
2026-03-10T19:43:32.205405,ATTITUDE,,,,-0.009229968301951885,-0.011005360633134842,-0.34573519229888916
2026-03-10T19:43:32.206516,GLOBAL_POSITION_INT,0.0,0.0,2.41,,,
2026-03-10T19:43:32.207662,SYS_STATUS,,,,,,,0.236,-0.01,-1,
2026-03-10T19:43:32.211724,RC_CHANNELS,,,,,,,,,,0
2026-03-10T19:43:32.405626,ATTITUDE,,,,-0.009216686710715294,-0.011001401580870152,-0.34582072496414185
2026-03-10T19:43:32.406458,GLOBAL_POSITION_INT,0.0,0.0,2.34,,,
2026-03-10T19:43:32.407647,SYS_STATUS,,,,,,,0.234,-0.01,-1,
2026-03-10T19:43:32.410732,RC_CHANNELS,,,,,,,,,,0
2026-03-10T19:43:32.605391,ATTITUDE,,,,-0.009213227778673172,-0.01098928414285183,-0.3459320366382599
2026-03-10T19:43:32.607139,GLOBAL_POSITION_INT,0.0,0.0,2.41,,,
2026-03-10T19:43:32.608816,SYS_STATUS,,,,,,,0.233,-0.01,-1,
2026-03-10T19:43:32.613591,RC_CHANNELS,,,,,,,,,,0
2026-03-10T19:43:32.804596,ATTITUDE,,,,-0.009214210323989391,-0.010983155108988285,-0.3460477888584137
2026-03-10T19:43:32.805407,GLOBAL_POSITION_INT,0.0,0.0,2.29,,,
2026-03-10T19:43:32.806607,SYS_STATUS,,,,,,,0.233,-0.01,-1,
2026-03-10T19:43:32.810355,RC_CHANNELS,,,,,,,,,,0
2026-03-10T19:43:33.005670,ATTITUDE,,,,-0.009252012707293034,-0.010996616445481777,-0.34613165259361267
2026-03-10T19:43:33.007345,GLOBAL_POSITION_INT,0.0,0.0,2.43,,,
2026-03-10T19:43:33.008506,SYS_STATUS,,,,,,,0.233,-0.01,-1,
2026-03-10T19:43:33.013429,RC_CHANNELS,,,,,,,,,,0
2026-03-10T19:43:33.204623,ATTITUDE,,,,-0.009255395270884037,-0.011012431234121323,-0.3462323248386383
2026-03-10T19:43:33.205457,GLOBAL_POSITION_INT,0.0,0.0,2.41,,,
2026-03-10T19:43:33.206722,SYS_STATUS,,,,,,,0.236,-0.01,-1,
2026-03-10T19:43:33.209634,RC_CHANNELS,,,,,,,,,,0
2026-03-10T19:43:33.405454,ATTITUDE,,,,-0.009272894822061062,-0.01097629964351654,-0.34635481238365173
2026-03-10T19:43:33.406295,GLOBAL_POSITION_INT,0.0,0.0,2.31,,,
2026-03-10T19:43:33.407719,SYS_STATUS,,,,,,,0.235,-0.01,-1,
2026-03-10T19:43:33.410631,RC_CHANNELS,,,,,,,,,,0
2026-03-10T19:43:33.604989,ATTITUDE,,,,-0.00927717611193657,-0.010962446220219135,-0.3464520573616028
2026-03-10T19:43:33.606169,GLOBAL_POSITION_INT,0.0,0.0,2.4,,,
2026-03-10T19:43:33.607556,SYS_STATUS,,,,,,,0.234,-0.01,-1,
2026-03-10T19:43:33.612739,RC_CHANNELS,,,,,,,,,,0
2026-03-10T19:43:33.804921,ATTITUDE,,,,-0.009251446463167667,-0.010940617881715298,-0.3465402126312256
2026-03-10T19:43:33.806243,GLOBAL_POSITION_INT,0.0,0.0,2.27,,,
2026-03-10T19:43:33.807795,SYS_STATUS,,,,,,,0.233,-0.01,-1,
2026-03-10T19:43:33.811996,RC_CHANNELS,,,,,,,,,,0
2026-03-10T19:43:34.004766,ATTITUDE,,,,-0.009213988669216633,-0.010944698937237263,-0.34663647413253784
2026-03-10T19:43:34.005562,GLOBAL_POSITION_INT,0.0,0.0,2.41,,,
2026-03-10T19:43:34.006831,SYS_STATUS,,,,,,,0.232,-0.01,-1,
2026-03-10T19:43:34.009873,RC_CHANNELS,,,,,,,,,,0
2026-03-10T19:43:34.205465,ATTITUDE,,,,-0.009192847646772861,-0.0109389154240489,-0.3467438519001007
2026-03-10T19:43:34.207013,GLOBAL_POSITION_INT,0.0,0.0,2.61,,,
2026-03-10T19:43:34.208507,SYS_STATUS,,,,,,,0.235,-0.01,-1,
2026-03-10T19:43:34.211735,RC_CHANNELS,,,,,,,,,,0
2026-03-10T19:43:34.405033,ATTITUDE,,,,-0.009183507412672043,-0.010933998972177505,-0.34683528542518616
2026-03-10T19:43:34.405849,GLOBAL_POSITION_INT,0.0,0.0,2.42,,,
2026-03-10T19:43:34.407044,SYS_STATUS,,,,,,,0.235,-0.01,-1,
2026-03-10T19:43:34.410984,RC_CHANNELS,,,,,,,,,,0
2026-03-10T19:43:34.604814,ATTITUDE,,,,-0.009220334701240063,-0.010951907373964787,-0.346968412399292
2026-03-10T19:43:34.605734,GLOBAL_POSITION_INT,0.0,0.0,2.27,,,
2026-03-10T19:43:34.607372,SYS_STATUS,,,,,,,0.236,-0.01,-1,
2026-03-10T19:43:34.610483,RC_CHANNELS,,,,,,,,,,0
2026-03-10T19:43:34.805576,ATTITUDE,,,,-0.009215882048010826,-0.010949086397886276,-0.34711578488349915
2026-03-10T19:43:34.807256,GLOBAL_POSITION_INT,0.0,0.0,2.33,,,
2026-03-10T19:43:34.808368,SYS_STATUS,,,,,,,0.24,-0.01,-1,
2026-03-10T19:43:34.811342,RC_CHANNELS,,,,,,,,,,0
2026-03-10T19:43:35.005674,ATTITUDE,,,,-0.009202168323099613,-0.010961569845676422,-0.3472405970096588
2026-03-10T19:43:35.007032,GLOBAL_POSITION_INT,0.0,0.0,2.45,,,
2026-03-10T19:43:35.009055,SYS_STATUS,,,,,,,0.235,-0.01,-1,
2026-03-10T19:43:35.013592,RC_CHANNELS,,,,,,,,,,0
2026-03-10T19:43:35.204578,ATTITUDE,,,,-0.009196987375617027,-0.010935786180198193,-0.347369909286499
2026-03-10T19:43:35.205412,GLOBAL_POSITION_INT,0.0,0.0,2.21,,,
2026-03-10T19:43:35.206586,SYS_STATUS,,,,,,,0.235,-0.01,-1,
2026-03-10T19:43:35.210517,RC_CHANNELS,,,,,,,,,,0
2026-03-10T19:43:35.405013,ATTITUDE,,,,-0.009176291525363922,-0.010929522104561329,-0.34749141335487366
2026-03-10T19:43:35.405988,GLOBAL_POSITION_INT,0.0,0.0,2.51,,,
2026-03-10T19:43:35.407711,SYS_STATUS,,,,,,,0.233,-0.01,-1,
2026-03-10T19:43:35.410544,RC_CHANNELS,,,,,,,,,,0
2026-03-10T19:43:35.604805,ATTITUDE,,,,-0.009159854613244534,-0.010942910797894001,-0.34756532311439514
2026-03-10T19:43:35.605718,GLOBAL_POSITION_INT,0.0,0.0,2.12,,,
2026-03-10T19:43:35.607643,SYS_STATUS,,,,,,,0.233,-0.01,-1,
2026-03-10T19:43:35.612101,RC_CHANNELS,,,,,,,,,,0
2026-03-10T19:43:35.804799,ATTITUDE,,,,-0.009206453338265419,-0.010928112082183361,-0.34766536951065063
2026-03-10T19:43:35.805621,GLOBAL_POSITION_INT,0.0,0.0,2.54,,,
2026-03-10T19:43:35.807416,SYS_STATUS,,,,,,,0.237,-0.01,-1,
2026-03-10T19:43:35.810953,RC_CHANNELS,,,,,,,,,,0
2026-03-10T19:43:36.005195,ATTITUDE,,,,-0.009225844405591488,-0.01093942392617464,-0.3477882146835327
2026-03-10T19:43:36.006357,GLOBAL_POSITION_INT,0.0,0.0,2.1,,,
2026-03-10T19:43:36.007565,SYS_STATUS,,,,,,,0.234,-0.01,-1,
2026-03-10T19:43:36.011384,RC_CHANNELS,,,,,,,,,,0
2026-03-10T19:43:36.204754,ATTITUDE,,,,-0.00922093354165554,-0.010923504829406738,-0.3478761613368988
2026-03-10T19:43:36.205564,GLOBAL_POSITION_INT,0.0,0.0,2.33,,,
2026-03-10T19:43:36.206673,SYS_STATUS,,,,,,,0.235,-0.01,-1,
2026-03-10T19:43:36.210437,RC_CHANNELS,,,,,,,,,,0
2026-03-10T19:43:36.406343,ATTITUDE,,,,-0.00922295544296503,-0.010917264968156815,-0.3479984402656555
2026-03-10T19:43:36.407268,GLOBAL_POSITION_INT,0.0,0.0,2.47,,,
2026-03-10T19:43:36.408403,SYS_STATUS,,,,,,,0.232,-0.01,-1,
2026-03-10T19:43:36.411401,RC_CHANNELS,,,,,,,,,,0
2026-03-10T19:43:36.605200,ATTITUDE,,,,-0.009179132990539074,-0.010910998098552227,-0.3481096029281616
2026-03-10T19:43:36.606196,GLOBAL_POSITION_INT,0.0,0.0,2.53,,,
2026-03-10T19:43:36.607795,SYS_STATUS,,,,,,,0.232,-0.01,-1,
2026-03-10T19:43:36.611568,RC_CHANNELS,,,,,,,,,,0
2026-03-10T19:43:36.804630,ATTITUDE,,,,-0.009184876456856728,-0.010924474336206913,-0.3482295274734497
2026-03-10T19:43:36.805488,GLOBAL_POSITION_INT,0.0,0.0,2.47,,,
2026-03-10T19:43:36.807080,SYS_STATUS,,,,,,,0.239,-0.01,-1,
2026-03-10T19:43:36.810853,RC_CHANNELS,,,,,,,,,,0
2026-03-10T19:43:37.005379,ATTITUDE,,,,-0.009202091954648495,-0.01098520215600729,-0.34834063053131104
2026-03-10T19:43:37.006399,GLOBAL_POSITION_INT,0.0,0.0,2.52,,,
2026-03-10T19:43:37.007908,SYS_STATUS,,,,,,,0.233,-0.01,-1,
2026-03-10T19:43:37.012459,RC_CHANNELS,,,,,,,,,,0
2026-03-10T19:43:37.205098,ATTITUDE,,,,-0.009175529703497887,-0.011018272489309311,-0.3484356999397278
2026-03-10T19:43:37.205956,GLOBAL_POSITION_INT,0.0,0.0,2.3,,,
2026-03-10T19:43:37.207126,SYS_STATUS,,,,,,,0.234,-0.01,-1,
2026-03-10T19:43:37.211280,RC_CHANNELS,,,,,,,,,,0
2026-03-10T19:43:37.405769,ATTITUDE,,,,-0.009164504706859589,-0.011060347780585289,-0.34853965044021606
2026-03-10T19:43:37.406764,GLOBAL_POSITION_INT,0.0,0.0,2.22,,,
2026-03-10T19:43:37.407846,SYS_STATUS,,,,,,,0.236,-0.01,-1,
2026-03-10T19:43:37.412551,RC_CHANNELS,,,,,,,,,,0
2026-03-10T19:43:37.605824,ATTITUDE,,,,-0.009150253608822823,-0.011123938485980034,-0.34865066409111023
2026-03-10T19:43:37.606702,GLOBAL_POSITION_INT,0.0,0.0,2.26,,,
2026-03-10T19:43:37.607951,SYS_STATUS,,,,,,,0.235,-0.01,-1,
2026-03-10T19:43:37.611699,RC_CHANNELS,,,,,,,,,,0
2026-03-10T19:43:37.804964,ATTITUDE,,,,-0.00915952306240797,-0.011123756878077984,-0.3487533628940582
2026-03-10T19:43:37.805778,GLOBAL_POSITION_INT,0.0,0.0,2.3,,,
2026-03-10T19:43:37.807618,SYS_STATUS,,,,,,,0.233,-0.01,-1,
2026-03-10T19:43:37.810513,RC_CHANNELS,,,,,,,,,,0
2026-03-10T19:43:38.006230,ATTITUDE,,,,-0.00915929302573204,-0.011109944432973862,-0.3488345742225647
2026-03-10T19:43:38.007602,GLOBAL_POSITION_INT,0.0,0.0,2.27,,,
2026-03-10T19:43:38.009069,SYS_STATUS,,,,,,,0.235,-0.01,-1,
2026-03-10T19:43:38.013557,RC_CHANNELS,,,,,,,,,,0
2026-03-10T19:43:38.205069,ATTITUDE,,,,-0.009157810360193253,-0.011120738461613655,-0.34896138310432434
2026-03-10T19:43:38.206470,GLOBAL_POSITION_INT,0.0,0.0,2.29,,,
2026-03-10T19:43:38.207902,SYS_STATUS,,,,,,,0.237,-0.01,-1,
2026-03-10T19:43:38.210908,RC_CHANNELS,,,,,,,,,,0
2026-03-10T19:43:38.405129,ATTITUDE,,,,-0.00916183739900589,-0.01113914418965578,-0.349086731672287
2026-03-10T19:43:38.405919,GLOBAL_POSITION_INT,0.0,0.0,2.27,,,
2026-03-10T19:43:38.407355,SYS_STATUS,,,,,,,0.237,-0.01,-1,
2026-03-10T19:43:38.410368,RC_CHANNELS,,,,,,,,,,0
2026-03-10T19:43:38.604830,ATTITUDE,,,,-0.009185231290757656,-0.011175261810421944,-0.3492310345172882
2026-03-10T19:43:38.605650,GLOBAL_POSITION_INT,0.0,0.0,2.36,,,
2026-03-10T19:43:38.606998,SYS_STATUS,,,,,,,0.233,-0.01,-1,
2026-03-10T19:43:38.611017,RC_CHANNELS,,,,,,,,,,0
2026-03-10T19:43:38.804994,ATTITUDE,,,,-0.00916867796331644,-0.011188935488462448,-0.34935685992240906
2026-03-10T19:43:38.805890,GLOBAL_POSITION_INT,0.0,0.0,2.09,,,
2026-03-10T19:43:38.807145,SYS_STATUS,,,,,,,0.231,-0.01,-1,
2026-03-10T19:43:38.811097,RC_CHANNELS,,,,,,,,,,0
2026-03-10T19:43:39.005416,ATTITUDE,,,,-0.00916416198015213,-0.011188666336238384,-0.3494795560836792
2026-03-10T19:43:39.006487,GLOBAL_POSITION_INT,0.0,0.0,2.28,,,
2026-03-10T19:43:39.008517,SYS_STATUS,,,,,,,0.234,-0.01,-1,
2026-03-10T19:43:39.012799,RC_CHANNELS,,,,,,,,,,0
2026-03-10T19:43:39.206003,ATTITUDE,,,,-0.009191380813717842,-0.011183198541402817,-0.34958457946777344
2026-03-10T19:43:39.207530,GLOBAL_POSITION_INT,0.0,0.0,2.31,,,
2026-03-10T19:43:39.208821,SYS_STATUS,,,,,,,0.233,-0.01,-1,
2026-03-10T19:43:39.213743,RC_CHANNELS,,,,,,,,,,0
2026-03-10T19:43:39.405208,ATTITUDE,,,,-0.009180610999464989,-0.011194066144526005,-0.3496905565261841
2026-03-10T19:43:39.405998,GLOBAL_POSITION_INT,0.0,0.0,2.27,,,
2026-03-10T19:43:39.407231,SYS_STATUS,,,,,,,0.236,-0.01,-1,
2026-03-10T19:43:39.411004,RC_CHANNELS,,,,,,,,,,0
2026-03-10T19:43:39.605604,ATTITUDE,,,,-0.009188528172671795,-0.011208298616111279,-0.3497829735279083
2026-03-10T19:43:39.606763,GLOBAL_POSITION_INT,0.0,0.0,2.19,,,
2026-03-10T19:43:39.608445,SYS_STATUS,,,,,,,0.24,-0.01,-1,
2026-03-10T19:43:39.611524,RC_CHANNELS,,,,,,,,,,0
2026-03-10T19:43:39.806021,ATTITUDE,,,,-0.00916852243244648,-0.011224551126360893,-0.34987181425094604
2026-03-10T19:43:39.806885,GLOBAL_POSITION_INT,0.0,0.0,2.53,,,
2026-03-10T19:43:39.808655,SYS_STATUS,,,,,,,0.237,-0.01,-1,
2026-03-10T19:43:39.813055,RC_CHANNELS,,,,,,,,,,0
2026-03-10T19:43:40.005755,ATTITUDE,,,,-0.009176806546747684,-0.011232168413698673,-0.349972665309906
2026-03-10T19:43:40.006751,GLOBAL_POSITION_INT,0.0,0.0,2.44,,,
2026-03-10T19:43:40.008689,SYS_STATUS,,,,,,,0.235,-0.01,-1,
2026-03-10T19:43:40.012541,RC_CHANNELS,,,,,,,,,,0
2026-03-10T19:43:40.205816,ATTITUDE,,,,-0.0092127351090312,-0.011269694194197655,-0.3500760793685913
2026-03-10T19:43:40.207386,GLOBAL_POSITION_INT,0.0,0.0,2.64,,,
2026-03-10T19:43:40.209257,SYS_STATUS,,,,,,,0.238,-0.01,-1,
2026-03-10T19:43:40.214017,RC_CHANNELS,,,,,,,,,,0
2026-03-10T19:43:40.407366,ATTITUDE,,,,-0.009193492121994495,-0.011293727904558182,-0.3501664102077484
2026-03-10T19:43:40.408757,GLOBAL_POSITION_INT,0.0,0.0,2.16,,,
2026-03-10T19:43:40.410388,SYS_STATUS,,,,,,,0.237,-0.01,-1,
2026-03-10T19:43:40.414177,RC_CHANNELS,,,,,,,,,,0
2026-03-10T19:43:40.606064,ATTITUDE,,,,-0.00919278897345066,-0.011272064410150051,-0.35028254985809326
2026-03-10T19:43:40.607358,GLOBAL_POSITION_INT,0.0,0.0,2.39,,,
2026-03-10T19:43:40.609459,SYS_STATUS,,,,,,,0.233,-0.01,-1,
2026-03-10T19:43:40.612929,RC_CHANNELS,,,,,,,,,,0
2026-03-10T19:43:40.805538,ATTITUDE,,,,-0.009220331907272339,-0.011249980889260769,-0.35040831565856934
2026-03-10T19:43:40.806551,GLOBAL_POSITION_INT,0.0,0.0,2.16,,,
2026-03-10T19:43:40.808325,SYS_STATUS,,,,,,,0.231,-0.01,-1,
2026-03-10T19:43:40.813270,RC_CHANNELS,,,,,,,,,,0
2026-03-10T19:43:41.006382,ATTITUDE,,,,-0.00921402033418417,-0.011257539503276348,-0.35048770904541016
2026-03-10T19:43:41.007960,GLOBAL_POSITION_INT,0.0,0.0,2.35,,,
2026-03-10T19:43:41.009702,SYS_STATUS,,,,,,,0.235,-0.01,-1,
2026-03-10T19:43:41.014227,RC_CHANNELS,,,,,,,,,,0
2026-03-10T19:43:41.205857,ATTITUDE,,,,-0.00918915681540966,-0.011257801204919815,-0.3505922555923462
2026-03-10T19:43:41.207224,GLOBAL_POSITION_INT,0.0,0.0,2.47,,,
2026-03-10T19:43:41.208983,SYS_STATUS,,,,,,,0.229,-0.01,-1,
2026-03-10T19:43:41.212935,RC_CHANNELS,,,,,,,,,,0
2026-03-10T19:43:41.406961,ATTITUDE,,,,-0.009178080596029758,-0.011267035268247128,-0.3506886959075928
2026-03-10T19:43:41.408199,GLOBAL_POSITION_INT,0.0,0.0,2.35,,,
2026-03-10T19:43:41.409212,SYS_STATUS,,,,,,,0.241,-0.01,-1,
2026-03-10T19:43:41.412141,RC_CHANNELS,,,,,,,,,,0
2026-03-10T19:43:41.605455,ATTITUDE,,,,-0.009231973439455032,-0.011286883614957333,-0.35081666707992554
2026-03-10T19:43:41.606525,GLOBAL_POSITION_INT,0.0,0.0,2.24,,,
2026-03-10T19:43:41.608270,SYS_STATUS,,,,,,,0.234,-0.01,-1,
2026-03-10T19:43:41.613541,RC_CHANNELS,,,,,,,,,,0
2026-03-10T19:43:41.806342,ATTITUDE,,,,-0.009271974675357342,-0.011288243345916271,-0.35090625286102295
2026-03-10T19:43:41.807618,GLOBAL_POSITION_INT,0.0,0.0,2.34,,,
2026-03-10T19:43:41.808847,SYS_STATUS,,,,,,,0.235,-0.01,-1,
2026-03-10T19:43:41.812976,RC_CHANNELS,,,,,,,,,,0
2026-03-10T19:43:42.005639,ATTITUDE,,,,-0.009261312894523144,-0.01126944087445736,-0.3510146737098694
2026-03-10T19:43:42.006708,GLOBAL_POSITION_INT,0.0,0.0,2.4,,,
2026-03-10T19:43:42.007983,SYS_STATUS,,,,,,,0.233,-0.01,-1,
2026-03-10T19:43:42.013572,RC_CHANNELS,,,,,,,,,,0
2026-03-10T19:43:42.206363,ATTITUDE,,,,-0.009298439137637615,-0.011282693594694138,-0.3510921895503998
2026-03-10T19:43:42.207576,GLOBAL_POSITION_INT,0.0,0.0,2.2,,,
2026-03-10T19:43:42.209109,SYS_STATUS,,,,,,,0.233,-0.01,-1,
2026-03-10T19:43:42.212836,RC_CHANNELS,,,,,,,,,,0
2026-03-10T19:43:42.406554,ATTITUDE,,,,-0.009285923093557358,-0.011272242292761803,-0.35120007395744324
2026-03-10T19:43:42.407725,GLOBAL_POSITION_INT,0.0,0.0,2.25,,,
2026-03-10T19:43:42.409508,SYS_STATUS,,,,,,,0.229,-0.01,-1,
2026-03-10T19:43:42.412664,RC_CHANNELS,,,,,,,,,,0
2026-03-10T19:43:42.605420,ATTITUDE,,,,-0.00927869975566864,-0.011305161751806736,-0.35133838653564453
2026-03-10T19:43:42.606323,GLOBAL_POSITION_INT,0.0,0.0,2.27,,,
2026-03-10T19:43:42.607536,SYS_STATUS,,,,,,,0.236,-0.01,-1,
2026-03-10T19:43:42.610602,RC_CHANNELS,,,,,,,,,,0
2026-03-10T19:43:42.805454,ATTITUDE,,,,-0.009264335967600346,-0.011302917264401913,-0.35146522521972656
2026-03-10T19:43:42.806297,GLOBAL_POSITION_INT,0.0,0.0,2.28,,,
2026-03-10T19:43:42.808456,SYS_STATUS,,,,,,,0.234,-0.01,-1,
2026-03-10T19:43:42.811382,RC_CHANNELS,,,,,,,,,,0
2026-03-10T19:43:43.006229,ATTITUDE,,,,-0.009296256117522717,-0.011324186809360981,-0.3515445590019226
2026-03-10T19:43:43.007487,GLOBAL_POSITION_INT,0.0,0.0,2.13,,,
2026-03-10T19:43:43.008658,SYS_STATUS,,,,,,,0.235,-0.01,-1,
2026-03-10T19:43:43.012179,RC_CHANNELS,,,,,,,,,,0
2026-03-10T19:43:43.206011,ATTITUDE,,,,-0.009245303459465504,-0.011339057236909866,-0.3516436219215393
2026-03-10T19:43:43.206878,GLOBAL_POSITION_INT,0.0,0.0,2.37,,,
2026-03-10T19:43:43.208151,SYS_STATUS,,,,,,,0.235,-0.01,-1,
2026-03-10T19:43:43.210973,RC_CHANNELS,,,,,,,,,,0
2026-03-10T19:43:43.406501,ATTITUDE,,,,-0.009222021326422691,-0.01132927369326353,-0.35173800587654114
2026-03-10T19:43:43.407541,GLOBAL_POSITION_INT,0.0,0.0,2.41,,,
2026-03-10T19:43:43.408796,SYS_STATUS,,,,,,,0.235,-0.01,-1,
2026-03-10T19:43:43.412223,RC_CHANNELS,,,,,,,,,,0
2026-03-10T19:43:43.605244,ATTITUDE,,,,-0.009223160333931446,-0.011338731274008751,-0.351834237575531
2026-03-10T19:43:43.606067,GLOBAL_POSITION_INT,0.0,0.0,2.3,,,
2026-03-10T19:43:43.607248,SYS_STATUS,,,,,,,0.236,-0.01,-1,
2026-03-10T19:43:43.610216,RC_CHANNELS,,,,,,,,,,0
2026-03-10T19:43:43.805447,ATTITUDE,,,,-0.009228698909282684,-0.011380098760128021,-0.35197022557258606
2026-03-10T19:43:43.806260,GLOBAL_POSITION_INT,0.0,0.0,2.14,,,
2026-03-10T19:43:43.807438,SYS_STATUS,,,,,,,0.232,-0.01,-1,
2026-03-10T19:43:43.810481,RC_CHANNELS,,,,,,,,,,0
2026-03-10T19:43:44.006055,ATTITUDE,,,,-0.009237663820385933,-0.011366759426891804,-0.35210326313972473
2026-03-10T19:43:44.007254,GLOBAL_POSITION_INT,0.0,0.0,2.2,,,
2026-03-10T19:43:44.009041,SYS_STATUS,,,,,,,0.234,-0.01,-1,
2026-03-10T19:43:44.012302,RC_CHANNELS,,,,,,,,,,0
2026-03-10T19:43:44.206225,ATTITUDE,,,,-0.009234830737113953,-0.011383055709302425,-0.3521950840950012
2026-03-10T19:43:44.207355,GLOBAL_POSITION_INT,0.0,0.0,2.51,,,
2026-03-10T19:43:44.208551,SYS_STATUS,,,,,,,0.23,-0.01,-1,
2026-03-10T19:43:44.211614,RC_CHANNELS,,,,,,,,,,0
2026-03-10T19:43:44.405885,ATTITUDE,,,,-0.009224859066307545,-0.01138810720294714,-0.3522895276546478
2026-03-10T19:43:44.406712,GLOBAL_POSITION_INT,0.0,0.0,2.46,,,
2026-03-10T19:43:44.407881,SYS_STATUS,,,,,,,0.238,-0.01,-1,
2026-03-10T19:43:44.410821,RC_CHANNELS,,,,,,,,,,0
2026-03-10T19:43:44.605856,ATTITUDE,,,,-0.00921070110052824,-0.011385822668671608,-0.35237473249435425
2026-03-10T19:43:44.606988,GLOBAL_POSITION_INT,0.0,0.0,2.44,,,
2026-03-10T19:43:44.608214,SYS_STATUS,,,,,,,0.234,-0.01,-1,
2026-03-10T19:43:44.611195,RC_CHANNELS,,,,,,,,,,0
2026-03-10T19:43:44.805893,ATTITUDE,,,,-0.00920139905065298,-0.011370481923222542,-0.35248833894729614
2026-03-10T19:43:44.806712,GLOBAL_POSITION_INT,0.0,0.0,2.42,,,
2026-03-10T19:43:44.807881,SYS_STATUS,,,,,,,0.233,-0.01,-1,
2026-03-10T19:43:44.810881,RC_CHANNELS,,,,,,,,,,0
2026-03-10T19:43:45.006472,ATTITUDE,,,,-0.009200421161949635,-0.011402810923755169,-0.3525826036930084
2026-03-10T19:43:45.007680,GLOBAL_POSITION_INT,0.0,0.0,2.21,,,
2026-03-10T19:43:45.008796,SYS_STATUS,,,,,,,0.235,-0.01,-1,
2026-03-10T19:43:45.011731,RC_CHANNELS,,,,,,,,,,0
2026-03-10T19:43:45.205420,ATTITUDE,,,,-0.009185662493109703,-0.011411906220018864,-0.3526749312877655
2026-03-10T19:43:45.206210,GLOBAL_POSITION_INT,0.0,0.0,2.29,,,
2026-03-10T19:43:45.207373,SYS_STATUS,,,,,,,0.234,-0.01,-1,
2026-03-10T19:43:45.210291,RC_CHANNELS,,,,,,,,,,0
2026-03-10T19:43:45.406079,ATTITUDE,,,,-0.00921830628067255,-0.011450955644249916,-0.3527488708496094
2026-03-10T19:43:45.406967,GLOBAL_POSITION_INT,0.0,0.0,2.33,,,
2026-03-10T19:43:45.408150,SYS_STATUS,,,,,,,0.235,-0.01,-1,
2026-03-10T19:43:45.411200,RC_CHANNELS,,,,,,,,,,0
2026-03-10T19:43:45.605774,ATTITUDE,,,,-0.009210321120917797,-0.01148161944001913,-0.3528527319431305
2026-03-10T19:43:45.606699,GLOBAL_POSITION_INT,0.0,0.0,2.25,,,
2026-03-10T19:43:45.607870,SYS_STATUS,,,,,,,0.234,-0.01,-1,
2026-03-10T19:43:45.610811,RC_CHANNELS,,,,,,,,,,0
2026-03-10T19:43:45.805536,ATTITUDE,,,,-0.009227586910128593,-0.01149045117199421,-0.3529772162437439
2026-03-10T19:43:45.806348,GLOBAL_POSITION_INT,0.0,0.0,2.26,,,
2026-03-10T19:43:45.807593,SYS_STATUS,,,,,,,0.234,-0.01,-1,
2026-03-10T19:43:45.810833,RC_CHANNELS,,,,,,,,,,0
2026-03-10T19:43:46.005462,ATTITUDE,,,,-0.009285285137593746,-0.011449761688709259,-0.3530571758747101
2026-03-10T19:43:46.006315,GLOBAL_POSITION_INT,0.0,0.0,2.48,,,
2026-03-10T19:43:46.007617,SYS_STATUS,,,,,,,0.235,-0.01,-1,
2026-03-10T19:43:46.010651,RC_CHANNELS,,,,,,,,,,0
2026-03-10T19:43:46.205761,ATTITUDE,,,,-0.00930180773139,-0.011498168110847473,-0.3531290292739868
2026-03-10T19:43:46.206546,GLOBAL_POSITION_INT,0.0,0.0,2.24,,,
2026-03-10T19:43:46.208093,SYS_STATUS,,,,,,,0.234,-0.01,-1,
2026-03-10T19:43:46.211751,RC_CHANNELS,,,,,,,,,,0
2026-03-10T19:43:46.405655,ATTITUDE,,,,-0.009306957945227623,-0.011481303721666336,-0.35326695442199707
2026-03-10T19:43:46.406448,GLOBAL_POSITION_INT,0.0,0.0,2.22,,,
2026-03-10T19:43:46.407660,SYS_STATUS,,,,,,,0.234,-0.01,-1,
2026-03-10T19:43:46.410593,RC_CHANNELS,,,,,,,,,,0
2026-03-10T19:43:46.605525,ATTITUDE,,,,-0.009318362921476364,-0.011478529311716557,-0.3533306419849396
2026-03-10T19:43:46.606338,GLOBAL_POSITION_INT,0.0,0.0,2.14,,,
2026-03-10T19:43:46.608152,SYS_STATUS,,,,,,,0.235,-0.01,-1,
2026-03-10T19:43:46.611218,RC_CHANNELS,,,,,,,,,,0
2026-03-10T19:43:46.806563,ATTITUDE,,,,-0.00931023433804512,-0.011502872221171856,-0.3534586429595947
2026-03-10T19:43:46.807430,GLOBAL_POSITION_INT,0.0,0.0,2.21,,,
2026-03-10T19:43:46.808584,SYS_STATUS,,,,,,,0.232,-0.01,-1,
2026-03-10T19:43:46.812018,RC_CHANNELS,,,,,,,,,,0
2026-03-10T19:43:47.006511,ATTITUDE,,,,-0.00932660885155201,-0.011519947089254856,-0.35349270701408386
2026-03-10T19:43:47.007439,GLOBAL_POSITION_INT,0.0,0.0,2.47,,,
2026-03-10T19:43:47.008674,SYS_STATUS,,,,,,,0.231,-0.01,-1,
2026-03-10T19:43:47.012544,RC_CHANNELS,,,,,,,,,,0
2026-03-10T19:43:47.205831,ATTITUDE,,,,-0.009307708591222763,-0.011538120917975903,-0.3535759150981903
2026-03-10T19:43:47.206821,GLOBAL_POSITION_INT,0.0,0.0,2.26,,,
2026-03-10T19:43:47.208657,SYS_STATUS,,,,,,,0.236,-0.01,-1,
2026-03-10T19:43:47.213295,RC_CHANNELS,,,,,,,,,,0
2026-03-10T19:43:47.405718,ATTITUDE,,,,-0.009293679147958755,-0.011522311717271805,-0.3536533713340759
2026-03-10T19:43:47.406508,GLOBAL_POSITION_INT,0.0,0.0,2.12,,,
2026-03-10T19:43:47.408605,SYS_STATUS,,,,,,,0.23,-0.01,-1,
2026-03-10T19:43:47.411984,RC_CHANNELS,,,,,,,,,,0
2026-03-10T19:43:47.605706,ATTITUDE,,,,-0.009296608157455921,-0.011486491188406944,-0.3537810742855072
2026-03-10T19:43:47.606522,GLOBAL_POSITION_INT,0.0,0.0,2.34,,,
2026-03-10T19:43:47.607726,SYS_STATUS,,,,,,,0.232,-0.01,-1,
2026-03-10T19:43:47.610710,RC_CHANNELS,,,,,,,,,,0
2026-03-10T19:43:47.805747,ATTITUDE,,,,-0.009285924024879932,-0.011488338001072407,-0.35384389758110046
2026-03-10T19:43:47.806559,GLOBAL_POSITION_INT,0.0,0.0,2.14,,,
2026-03-10T19:43:47.807795,SYS_STATUS,,,,,,,0.236,-0.01,-1,
2026-03-10T19:43:47.810774,RC_CHANNELS,,,,,,,,,,0
2026-03-10T19:43:48.005899,ATTITUDE,,,,-0.009316026233136654,-0.011479380540549755,-0.3539302945137024
2026-03-10T19:43:48.006812,GLOBAL_POSITION_INT,0.0,0.0,2.37,,,
2026-03-10T19:43:48.008204,SYS_STATUS,,,,,,,0.233,-0.01,-1,
2026-03-10T19:43:48.011208,RC_CHANNELS,,,,,,,,,,0
2026-03-10T19:43:48.205533,ATTITUDE,,,,-0.009319479577243328,-0.011451655067503452,-0.35401424765586853
2026-03-10T19:43:48.206346,GLOBAL_POSITION_INT,0.0,0.0,2.45,,,
2026-03-10T19:43:48.207863,SYS_STATUS,,,,,,,0.235,-0.01,-1,
2026-03-10T19:43:48.210756,RC_CHANNELS,,,,,,,,,,0
2026-03-10T19:43:48.406558,ATTITUDE,,,,-0.009294556453824043,-0.011428402736783028,-0.35411685705184937
2026-03-10T19:43:48.407431,GLOBAL_POSITION_INT,0.0,0.0,2.27,,,
2026-03-10T19:43:48.408609,SYS_STATUS,,,,,,,0.238,-0.01,-1,
2026-03-10T19:43:48.411424,RC_CHANNELS,,,,,,,,,,0
2026-03-10T19:43:48.605507,ATTITUDE,,,,-0.009318712167441845,-0.011420561000704765,-0.35423463582992554
2026-03-10T19:43:48.606325,GLOBAL_POSITION_INT,0.0,0.0,2.46,,,
2026-03-10T19:43:48.607498,SYS_STATUS,,,,,,,0.229,-0.01,-1,
2026-03-10T19:43:48.610499,RC_CHANNELS,,,,,,,,,,0
2026-03-10T19:43:48.806392,ATTITUDE,,,,-0.009295067749917507,-0.011423222720623016,-0.35431015491485596
2026-03-10T19:43:48.807780,GLOBAL_POSITION_INT,0.0,0.0,2.12,,,
2026-03-10T19:43:48.808957,SYS_STATUS,,,,,,,0.235,-0.01,-1,
2026-03-10T19:43:48.812055,RC_CHANNELS,,,,,,,,,,0
2026-03-10T19:43:49.006761,ATTITUDE,,,,-0.009302893653512001,-0.011398503556847572,-0.3544169068336487
2026-03-10T19:43:49.008374,GLOBAL_POSITION_INT,0.0,0.0,2.27,,,
2026-03-10T19:43:49.009577,SYS_STATUS,,,,,,,0.232,-0.01,-1,
2026-03-10T19:43:49.012670,RC_CHANNELS,,,,,,,,,,0
