timestamp,msg_type,lat,lon,alt,roll,pitch,yaw,voltage,current,battery_remaining,throttle
2026-03-27T11:01:17.457932,ATTITUDE,,,,-0.0717460960149765,0.09280891716480255,-2.448824644088745
2026-03-27T11:01:17.465086,GLOBAL_POSITION_INT,51.4935462,-1.7482671,167.2,,,
2026-03-27T11:01:17.466121,SYS_STATUS,,,,,,,16.374,0.0,100,
2026-03-27T11:01:17.468577,RC_CHANNELS,,,,,,,,,,1105
2026-03-27T11:01:17.475039,ATTITUDE,,,,-0.077371746301651,0.07259529829025269,-2.4628748893737793
2026-03-27T11:01:17.475881,GLOBAL_POSITION_INT,51.493546,-1.7482671,167.2,,,
2026-03-27T11:01:17.476936,SYS_STATUS,,,,,,,16.397,0.0,100,
2026-03-27T11:01:17.479302,RC_CHANNELS,,,,,,,,,,1105
2026-03-27T11:01:17.618370,ATTITUDE,,,,-0.07775285840034485,0.07399075478315353,-2.468188524246216
2026-03-27T11:01:17.619432,GLOBAL_POSITION_INT,51.4935459,-1.7482672,167.19,,,
2026-03-27T11:01:17.620618,SYS_STATUS,,,,,,,16.393,0.0,100,
2026-03-27T11:01:17.623180,RC_CHANNELS,,,,,,,,,,1105
2026-03-27T11:01:17.818376,ATTITUDE,,,,-0.07291072607040405,0.06273548305034637,-2.471175193786621
2026-03-27T11:01:17.819966,GLOBAL_POSITION_INT,51.4935458,-1.7482672,167.19,,,
2026-03-27T11:01:17.821268,SYS_STATUS,,,,,,,16.369,0.0,100,
2026-03-27T11:01:17.824070,RC_CHANNELS,,,,,,,,,,1105
2026-03-27T11:01:18.017719,ATTITUDE,,,,-0.0724780485033989,0.06322653591632843,-2.4796483516693115
2026-03-27T11:01:18.018775,GLOBAL_POSITION_INT,51.4935458,-1.7482673,167.18,,,
2026-03-27T11:01:18.020063,SYS_STATUS,,,,,,,16.394,0.0,100,
2026-03-27T11:01:18.022956,RC_CHANNELS,,,,,,,,,,1105
2026-03-27T11:01:18.218601,ATTITUDE,,,,-0.06147194653749466,0.06207162141799927,-2.4724600315093994
2026-03-27T11:01:18.219543,GLOBAL_POSITION_INT,51.4935457,-1.7482673,167.17,,,
2026-03-27T11:01:18.220400,SYS_STATUS,,,,,,,16.37,0.0,100,
2026-03-27T11:01:18.223176,RC_CHANNELS,,,,,,,,,,1105
2026-03-27T11:01:18.417817,ATTITUDE,,,,-0.05949441343545914,0.04477069899439812,-2.4689064025878906
2026-03-27T11:01:18.418801,GLOBAL_POSITION_INT,51.4935457,-1.7482672,167.15,,,
2026-03-27T11:01:18.420384,SYS_STATUS,,,,,,,16.398,0.0,100,
2026-03-27T11:01:18.422870,RC_CHANNELS,,,,,,,,,,1105
2026-03-27T11:01:18.617757,ATTITUDE,,,,-0.07583145797252655,0.04806186631321907,-2.4819352626800537
2026-03-27T11:01:18.618927,GLOBAL_POSITION_INT,51.4935456,-1.7482673,167.13,,,
2026-03-27T11:01:18.620257,SYS_STATUS,,,,,,,16.388,0.0,100,
2026-03-27T11:01:18.623137,RC_CHANNELS,,,,,,,,,,1105
2026-03-27T11:01:18.818406,ATTITUDE,,,,-0.072520911693573,0.06586036086082458,-2.486854076385498
2026-03-27T11:01:18.819700,GLOBAL_POSITION_INT,51.4935455,-1.7482673,167.1,,,
2026-03-27T11:01:18.820987,SYS_STATUS,,,,,,,16.371,0.0,100,
2026-03-27T11:01:18.823788,RC_CHANNELS,,,,,,,,,,1105
2026-03-27T11:01:19.018017,ATTITUDE,,,,-0.07142160087823868,0.07537634670734406,-2.4927585124969482
2026-03-27T11:01:19.019351,GLOBAL_POSITION_INT,51.4935455,-1.7482672,167.08,,,
2026-03-27T11:01:19.020591,SYS_STATUS,,,,,,,16.389,0.0,100,
2026-03-27T11:01:19.023141,RC_CHANNELS,,,,,,,,,,1105
2026-03-27T11:01:19.218496,ATTITUDE,,,,-0.08015363663434982,0.04287194460630417,-2.489706039428711
2026-03-27T11:01:19.219624,GLOBAL_POSITION_INT,51.4935456,-1.7482672,167.06,,,
2026-03-27T11:01:19.220890,SYS_STATUS,,,,,,,16.371,0.0,100,
2026-03-27T11:01:19.223643,RC_CHANNELS,,,,,,,,,,1105
2026-03-27T11:01:19.418294,ATTITUDE,,,,-0.10134583711624146,0.04505233094096184,-2.4940803050994873
2026-03-27T11:01:19.419071,GLOBAL_POSITION_INT,51.4935456,-1.7482672,167.04,,,
2026-03-27T11:01:19.420300,SYS_STATUS,,,,,,,16.397,0.0,100,
2026-03-27T11:01:19.423121,RC_CHANNELS,,,,,,,,,,1105
2026-03-27T11:01:19.617889,ATTITUDE,,,,-0.08934739977121353,0.032098188996315,-2.475606679916382
2026-03-27T11:01:19.619030,GLOBAL_POSITION_INT,51.4935454,-1.748267,167.0,,,
2026-03-27T11:01:19.620232,SYS_STATUS,,,,,,,16.392,0.0,100,
2026-03-27T11:01:19.623349,RC_CHANNELS,,,,,,,,,,1105
2026-03-27T11:01:19.818117,ATTITUDE,,,,-0.016545286402106285,0.05787226930260658,-2.47937273979187
2026-03-27T11:01:19.819257,GLOBAL_POSITION_INT,51.4935453,-1.748267,166.94,,,
2026-03-27T11:01:19.820325,SYS_STATUS,,,,,,,16.372,0.0,100,
2026-03-27T11:01:19.822981,RC_CHANNELS,,,,,,,,,,1105
2026-03-27T11:01:20.018341,ATTITUDE,,,,-0.025028763338923454,0.06208311393857002,-2.48382830619812
2026-03-27T11:01:20.019546,GLOBAL_POSITION_INT,51.4935454,-1.748267,166.93,,,
2026-03-27T11:01:20.020930,SYS_STATUS,,,,,,,16.394,0.0,100,
2026-03-27T11:01:20.023676,RC_CHANNELS,,,,,,,,,,1105
2026-03-27T11:01:20.217740,ATTITUDE,,,,-0.028946639969944954,0.053844500333070755,-2.5101687908172607
2026-03-27T11:01:20.218660,GLOBAL_POSITION_INT,51.4935454,-1.748267,166.94,,,
2026-03-27T11:01:20.219917,SYS_STATUS,,,,,,,16.373,0.0,100,
2026-03-27T11:01:20.222656,RC_CHANNELS,,,,,,,,,,1105
2026-03-27T11:01:20.417765,ATTITUDE,,,,-0.022685186937451363,0.05494925007224083,-2.5131471157073975
2026-03-27T11:01:20.418704,GLOBAL_POSITION_INT,51.4935454,-1.748267,166.94,,,
2026-03-27T11:01:20.420081,SYS_STATUS,,,,,,,16.397,0.0,100,
2026-03-27T11:01:20.422992,RC_CHANNELS,,,,,,,,,,1105
2026-03-27T11:01:20.617707,ATTITUDE,,,,-0.025247057899832726,0.0536460280418396,-2.509413480758667
2026-03-27T11:01:20.618635,GLOBAL_POSITION_INT,51.4935453,-1.748267,166.94,,,
2026-03-27T11:01:20.619716,SYS_STATUS,,,,,,,16.392,0.0,100,
2026-03-27T11:01:20.622279,RC_CHANNELS,,,,,,,,,,1105
2026-03-27T11:01:20.818524,ATTITUDE,,,,-0.02641165442764759,0.05463503301143646,-2.507838249206543
2026-03-27T11:01:20.819932,GLOBAL_POSITION_INT,51.4935453,-1.7482669,166.94,,,
2026-03-27T11:01:20.821240,SYS_STATUS,,,,,,,16.373,0.0,100,
2026-03-27T11:01:20.823803,RC_CHANNELS,,,,,,,,,,1105
2026-03-27T11:01:21.017810,ATTITUDE,,,,-0.032171644270420074,0.05361521244049072,-2.5043811798095703
2026-03-27T11:01:21.018826,GLOBAL_POSITION_INT,51.4935453,-1.7482668,166.94,,,
2026-03-27T11:01:21.020661,SYS_STATUS,,,,,,,16.389,0.0,100,
2026-03-27T11:01:21.023516,RC_CHANNELS,,,,,,,,,,1105
2026-03-27T11:01:21.217594,ATTITUDE,,,,-0.036255039274692535,0.056276217103004456,-2.5022239685058594
2026-03-27T11:01:21.218478,GLOBAL_POSITION_INT,51.4935452,-1.7482667,166.93,,,
2026-03-27T11:01:21.219917,SYS_STATUS,,,,,,,16.373,0.0,100,
2026-03-27T11:01:21.222329,RC_CHANNELS,,,,,,,,,,1105
2026-03-27T11:01:21.417772,ATTITUDE,,,,-0.03789466619491577,0.058545224368572235,-2.504289150238037
2026-03-27T11:01:21.418699,GLOBAL_POSITION_INT,51.4935452,-1.7482667,166.92,,,
2026-03-27T11:01:21.420569,SYS_STATUS,,,,,,,16.398,0.0,100,
2026-03-27T11:01:21.423374,RC_CHANNELS,,,,,,,,,,1105
2026-03-27T11:01:21.617654,ATTITUDE,,,,-0.036632999777793884,0.05916914716362953,-2.5052881240844727
2026-03-27T11:01:21.618736,GLOBAL_POSITION_INT,51.4935451,-1.7482667,166.92,,,
2026-03-27T11:01:21.620574,SYS_STATUS,,,,,,,16.392,0.0,100,
2026-03-27T11:01:21.623394,RC_CHANNELS,,,,,,,,,,1105
2026-03-27T11:01:21.818521,ATTITUDE,,,,-0.043013669550418854,0.0577474944293499,-2.5117921829223633
2026-03-27T11:01:21.819788,GLOBAL_POSITION_INT,51.4935451,-1.7482668,166.91,,,
2026-03-27T11:01:21.821173,SYS_STATUS,,,,,,,16.376,0.0,100,
2026-03-27T11:01:21.824269,RC_CHANNELS,,,,,,,,,,1105
2026-03-27T11:01:22.018412,ATTITUDE,,,,-0.04468095302581787,0.0533495768904686,-2.5189216136932373
2026-03-27T11:01:22.019464,GLOBAL_POSITION_INT,51.493545,-1.7482668,166.91,,,
2026-03-27T11:01:22.020975,SYS_STATUS,,,,,,,16.392,0.0,100,
2026-03-27T11:01:22.023683,RC_CHANNELS,,,,,,,,,,1105
2026-03-27T11:01:22.217783,ATTITUDE,,,,-0.04798460751771927,0.05727235972881317,-2.5280656814575195
2026-03-27T11:01:22.219287,GLOBAL_POSITION_INT,51.4935449,-1.7482668,166.9,,,
2026-03-27T11:01:22.220682,SYS_STATUS,,,,,,,16.37,0.0,100,
2026-03-27T11:01:22.223199,RC_CHANNELS,,,,,,,,,,1105
2026-03-27T11:01:22.417747,ATTITUDE,,,,-0.054481908679008484,0.055998608469963074,-2.5303893089294434
2026-03-27T11:01:22.418682,GLOBAL_POSITION_INT,51.4935449,-1.7482668,166.91,,,
2026-03-27T11:01:22.419669,SYS_STATUS,,,,,,,16.396,0.0,100,
2026-03-27T11:01:22.421914,RC_CHANNELS,,,,,,,,,,1105
2026-03-27T11:01:22.617811,ATTITUDE,,,,-0.0585193857550621,0.06717618554830551,-2.53774356842041
2026-03-27T11:01:22.618764,GLOBAL_POSITION_INT,51.4935449,-1.7482668,166.91,,,
2026-03-27T11:01:22.620378,SYS_STATUS,,,,,,,16.389,0.0,100,
2026-03-27T11:01:22.623404,RC_CHANNELS,,,,,,,,,,1105
2026-03-27T11:01:22.818492,ATTITUDE,,,,-0.0695873573422432,0.06717563420534134,-2.5327906608581543
2026-03-27T11:01:22.819787,GLOBAL_POSITION_INT,51.4935449,-1.7482667,166.91,,,
2026-03-27T11:01:22.821231,SYS_STATUS,,,,,,,16.367,0.0,100,
2026-03-27T11:01:22.825033,RC_CHANNELS,,,,,,,,,,1105
2026-03-27T11:01:23.018149,ATTITUDE,,,,-0.06514228880405426,0.08140698075294495,-2.5217106342315674
2026-03-27T11:01:23.019426,GLOBAL_POSITION_INT,51.4935448,-1.7482664,166.9,,,
2026-03-27T11:01:23.020803,SYS_STATUS,,,,,,,16.388,0.0,100,
2026-03-27T11:01:23.024735,RC_CHANNELS,,,,,,,,,,1105
2026-03-27T11:01:23.217772,ATTITUDE,,,,-0.05655719339847565,0.08749156445264816,-2.508922576904297
2026-03-27T11:01:23.218938,GLOBAL_POSITION_INT,51.4935448,-1.7482663,166.9,,,
2026-03-27T11:01:23.220619,SYS_STATUS,,,,,,,16.366,0.0,100,
2026-03-27T11:01:23.223157,RC_CHANNELS,,,,,,,,,,1105
2026-03-27T11:01:23.417861,ATTITUDE,,,,-0.04348522424697876,0.08562935888767242,-2.5109846591949463
2026-03-27T11:01:23.418626,GLOBAL_POSITION_INT,51.4935446,-1.7482663,166.89,,,
2026-03-27T11:01:23.419551,SYS_STATUS,,,,,,,16.392,0.0,100,
2026-03-27T11:01:23.421844,RC_CHANNELS,,,,,,,,,,1105
2026-03-27T11:01:23.617681,ATTITUDE,,,,-0.06491719186306,0.07609612494707108,-2.518369197845459
2026-03-27T11:01:23.618444,GLOBAL_POSITION_INT,51.4935445,-1.7482664,166.9,,,
2026-03-27T11:01:23.619778,SYS_STATUS,,,,,,,16.389,0.0,100,
2026-03-27T11:01:23.622351,RC_CHANNELS,,,,,,,,,,1105
2026-03-27T11:01:23.818258,ATTITUDE,,,,-0.05622706562280655,0.06944402307271957,-2.517817974090576
2026-03-27T11:01:23.819080,GLOBAL_POSITION_INT,51.4935445,-1.7482664,166.92,,,
2026-03-27T11:01:23.820196,SYS_STATUS,,,,,,,16.371,0.0,100,
2026-03-27T11:01:23.823198,RC_CHANNELS,,,,,,,,,,1105
2026-03-27T11:01:24.018474,ATTITUDE,,,,-0.05414225906133652,0.06160110980272293,-2.522078275680542
2026-03-27T11:01:24.019668,GLOBAL_POSITION_INT,51.4935444,-1.7482664,166.93,,,
2026-03-27T11:01:24.021082,SYS_STATUS,,,,,,,16.389,0.0,100,
2026-03-27T11:01:24.024517,RC_CHANNELS,,,,,,,,,,1105
2026-03-27T11:01:24.218587,ATTITUDE,,,,-0.05385302007198334,0.058063577860593796,-2.533632516860962
2026-03-27T11:01:24.219647,GLOBAL_POSITION_INT,51.4935443,-1.7482664,166.94,,,
2026-03-27T11:01:24.221011,SYS_STATUS,,,,,,,16.367,0.0,100,
2026-03-27T11:01:24.223983,RC_CHANNELS,,,,,,,,,,1105
2026-03-27T11:01:24.417806,ATTITUDE,,,,-0.058239616453647614,0.0635797530412674,-2.530035972595215
2026-03-27T11:01:24.418735,GLOBAL_POSITION_INT,51.4935444,-1.7482663,166.96,,,
2026-03-27T11:01:24.420268,SYS_STATUS,,,,,,,16.398,0.0,100,
2026-03-27T11:01:24.423142,RC_CHANNELS,,,,,,,,,,1105
2026-03-27T11:01:24.617800,ATTITUDE,,,,-0.06718053668737411,0.05800642445683479,-2.512681484222412
2026-03-27T11:01:24.618789,GLOBAL_POSITION_INT,51.4935444,-1.7482663,166.99,,,
2026-03-27T11:01:24.620192,SYS_STATUS,,,,,,,16.388,0.0,100,
2026-03-27T11:01:24.622817,RC_CHANNELS,,,,,,,,,,1105
2026-03-27T11:01:24.818576,ATTITUDE,,,,-0.06995438784360886,0.05088390037417412,-2.520890235900879
2026-03-27T11:01:24.820133,GLOBAL_POSITION_INT,51.4935443,-1.7482663,167.02,,,
2026-03-27T11:01:24.821294,SYS_STATUS,,,,,,,16.37,0.0,100,
2026-03-27T11:01:24.824097,RC_CHANNELS,,,,,,,,,,1105
2026-03-27T11:01:25.018446,ATTITUDE,,,,-0.06470756977796555,0.0472872331738472,-2.5214574337005615
2026-03-27T11:01:25.019595,GLOBAL_POSITION_INT,51.4935443,-1.7482663,167.05,,,
2026-03-27T11:01:25.020976,SYS_STATUS,,,,,,,16.388,0.0,100,
2026-03-27T11:01:25.024036,RC_CHANNELS,,,,,,,,,,1105
2026-03-27T11:01:25.217757,ATTITUDE,,,,-0.07435005158185959,0.04662327095866203,-2.53102707862854
2026-03-27T11:01:25.218667,GLOBAL_POSITION_INT,51.4935443,-1.7482663,167.08,,,
2026-03-27T11:01:25.219803,SYS_STATUS,,,,,,,16.371,0.0,100,
2026-03-27T11:01:25.222309,RC_CHANNELS,,,,,,,,,,1105
2026-03-27T11:01:25.417884,ATTITUDE,,,,-0.0741114690899849,0.043742984533309937,-2.5387890338897705
2026-03-27T11:01:25.419218,GLOBAL_POSITION_INT,51.4935443,-1.7482663,167.11,,,
2026-03-27T11:01:25.420779,SYS_STATUS,,,,,,,16.397,0.0,100,
2026-03-27T11:01:25.423481,RC_CHANNELS,,,,,,,,,,1105
2026-03-27T11:01:25.618384,ATTITUDE,,,,-0.07577928155660629,0.04307234659790993,-2.538100004196167
2026-03-27T11:01:25.619573,GLOBAL_POSITION_INT,51.4935444,-1.7482661,167.14,,,
2026-03-27T11:01:25.620763,SYS_STATUS,,,,,,,16.387,0.0,100,
2026-03-27T11:01:25.623477,RC_CHANNELS,,,,,,,,,,1105
2026-03-27T11:01:25.818578,ATTITUDE,,,,-0.08166491240262985,0.0441170297563076,-2.544595241546631
2026-03-27T11:01:25.820104,GLOBAL_POSITION_INT,51.4935444,-1.7482661,167.16,,,
2026-03-27T11:01:25.821526,SYS_STATUS,,,,,,,16.368,0.0,100,
2026-03-27T11:01:25.824797,RC_CHANNELS,,,,,,,,,,1105
2026-03-27T11:01:26.018193,ATTITUDE,,,,-0.07115326076745987,0.05509303882718086,-2.5372860431671143
2026-03-27T11:01:26.019326,GLOBAL_POSITION_INT,51.4935444,-1.7482661,167.19,,,
2026-03-27T11:01:26.020505,SYS_STATUS,,,,,,,16.389,0.0,100,
2026-03-27T11:01:26.023291,RC_CHANNELS,,,,,,,,,,1105
2026-03-27T11:01:26.217884,ATTITUDE,,,,-0.08794614672660828,0.022487185895442963,-2.5416929721832275
2026-03-27T11:01:26.218737,GLOBAL_POSITION_INT,51.4935444,-1.7482661,167.22,,,
2026-03-27T11:01:26.220303,SYS_STATUS,,,,,,,16.375,0.0,100,
2026-03-27T11:01:26.222811,RC_CHANNELS,,,,,,,,,,1105
2026-03-27T11:01:26.417803,ATTITUDE,,,,-0.09272559732198715,0.02270297147333622,-2.5485353469848633
2026-03-27T11:01:26.418703,GLOBAL_POSITION_INT,51.4935444,-1.7482661,167.24,,,
2026-03-27T11:01:26.420181,SYS_STATUS,,,,,,,16.399,0.0,100,
2026-03-27T11:01:26.422896,RC_CHANNELS,,,,,,,,,,1105
2026-03-27T11:01:26.618452,ATTITUDE,,,,-0.08518601208925247,0.0026937960647046566,-2.544696807861328
2026-03-27T11:01:26.619510,GLOBAL_POSITION_INT,51.4935446,-1.7482661,167.26,,,
2026-03-27T11:01:26.620947,SYS_STATUS,,,,,,,16.391,0.0,100,
2026-03-27T11:01:26.623397,RC_CHANNELS,,,,,,,,,,1105
2026-03-27T11:01:26.818533,ATTITUDE,,,,-0.08838877081871033,0.011243227869272232,-2.5469799041748047
2026-03-27T11:01:26.819716,GLOBAL_POSITION_INT,51.4935446,-1.7482661,167.26,,,
2026-03-27T11:01:26.821056,SYS_STATUS,,,,,,,16.371,0.0,100,
2026-03-27T11:01:26.823481,RC_CHANNELS,,,,,,,,,,1105
2026-03-27T11:01:27.018464,ATTITUDE,,,,-0.08194027841091156,0.009387772530317307,-2.5420072078704834
2026-03-27T11:01:27.019367,GLOBAL_POSITION_INT,51.4935447,-1.7482659,167.26,,,
2026-03-27T11:01:27.020517,SYS_STATUS,,,,,,,16.392,0.0,100,
2026-03-27T11:01:27.023488,RC_CHANNELS,,,,,,,,,,1105
2026-03-27T11:01:27.218188,ATTITUDE,,,,-0.07739175856113434,0.020120689645409584,-2.546656608581543
2026-03-27T11:01:27.218980,GLOBAL_POSITION_INT,51.4935447,-1.7482657,167.27,,,
2026-03-27T11:01:27.220270,SYS_STATUS,,,,,,,16.37,0.0,100,
2026-03-27T11:01:27.223284,RC_CHANNELS,,,,,,,,,,1105
2026-03-27T11:01:27.417858,ATTITUDE,,,,-0.08624230325222015,0.011461354792118073,-2.5506622791290283
2026-03-27T11:01:27.418904,GLOBAL_POSITION_INT,51.4935447,-1.7482656,167.3,,,
2026-03-27T11:01:27.420229,SYS_STATUS,,,,,,,16.39,0.0,100,
2026-03-27T11:01:27.423751,RC_CHANNELS,,,,,,,,,,1105
2026-03-27T11:01:27.618502,ATTITUDE,,,,-0.08561936765909195,0.03473241999745369,-2.5492169857025146
2026-03-27T11:01:27.619443,GLOBAL_POSITION_INT,51.4935447,-1.7482655,167.32,,,
2026-03-27T11:01:27.620787,SYS_STATUS,,,,,,,16.387,0.0,100,
2026-03-27T11:01:27.623318,RC_CHANNELS,,,,,,,,,,1105
2026-03-27T11:01:27.818621,ATTITUDE,,,,-0.07430341094732285,0.024773787707090378,-2.560445785522461
2026-03-27T11:01:27.820099,GLOBAL_POSITION_INT,51.4935446,-1.7482655,167.35,,,
2026-03-27T11:01:27.821208,SYS_STATUS,,,,,,,16.372,0.0,100,
2026-03-27T11:01:27.824720,RC_CHANNELS,,,,,,,,,,1105
2026-03-27T11:01:28.018447,ATTITUDE,,,,-0.07915952801704407,0.02670266665518284,-2.582357406616211
2026-03-27T11:01:28.019218,GLOBAL_POSITION_INT,51.4935446,-1.7482656,167.37,,,
2026-03-27T11:01:28.020315,SYS_STATUS,,,,,,,16.389,0.0,100,
2026-03-27T11:01:28.023169,RC_CHANNELS,,,,,,,,,,1105
2026-03-27T11:01:28.218068,ATTITUDE,,,,-0.07279352843761444,0.021004408597946167,-2.600454568862915
2026-03-27T11:01:28.219135,GLOBAL_POSITION_INT,51.4935446,-1.7482657,167.39,,,
2026-03-27T11:01:28.220447,SYS_STATUS,,,,,,,16.371,0.0,100,
2026-03-27T11:01:28.222832,RC_CHANNELS,,,,,,,,,,1105
2026-03-27T11:01:28.417811,ATTITUDE,,,,-0.07349768280982971,0.025821009650826454,-2.6098036766052246
2026-03-27T11:01:28.418985,GLOBAL_POSITION_INT,51.4935447,-1.7482657,167.4,,,
2026-03-27T11:01:28.420780,SYS_STATUS,,,,,,,16.394,0.0,100,
2026-03-27T11:01:28.423208,RC_CHANNELS,,,,,,,,,,1105
2026-03-27T11:01:28.618758,ATTITUDE,,,,-0.07488217949867249,0.029574766755104065,-2.626725912094116
2026-03-27T11:01:28.619888,GLOBAL_POSITION_INT,51.4935448,-1.7482657,167.42,,,
2026-03-27T11:01:28.621180,SYS_STATUS,,,,,,,16.395,0.0,100,
2026-03-27T11:01:28.624266,RC_CHANNELS,,,,,,,,,,1105
2026-03-27T11:01:28.818667,ATTITUDE,,,,-0.06398279964923859,0.040818482637405396,-2.6522183418273926
2026-03-27T11:01:28.820222,GLOBAL_POSITION_INT,51.4935448,-1.7482657,167.42,,,
2026-03-27T11:01:28.821500,SYS_STATUS,,,,,,,16.367,0.0,100,
2026-03-27T11:01:28.824327,RC_CHANNELS,,,,,,,,,,1105
2026-03-27T11:01:29.017888,ATTITUDE,,,,-0.05678967386484146,0.028264086693525314,-2.665449619293213
2026-03-27T11:01:29.018975,GLOBAL_POSITION_INT,51.4935449,-1.7482658,167.43,,,
2026-03-27T11:01:29.020705,SYS_STATUS,,,,,,,16.389,0.0,100,
2026-03-27T11:01:29.024044,RC_CHANNELS,,,,,,,,,,1105
2026-03-27T11:01:29.218608,ATTITUDE,,,,-0.06171794235706329,0.03735525161027908,-2.6765573024749756
2026-03-27T11:01:29.219395,GLOBAL_POSITION_INT,51.493545,-1.7482658,167.44,,,
2026-03-27T11:01:29.220262,SYS_STATUS,,,,,,,16.371,0.0,100,
2026-03-27T11:01:29.223341,RC_CHANNELS,,,,,,,,,,1105
2026-03-27T11:01:29.418022,ATTITUDE,,,,-0.05858737230300903,0.03313272073864937,-2.6995465755462646
2026-03-27T11:01:29.418807,GLOBAL_POSITION_INT,51.493545,-1.7482658,167.45,,,
2026-03-27T11:01:29.420028,SYS_STATUS,,,,,,,16.393,0.0,100,
2026-03-27T11:01:29.423122,RC_CHANNELS,,,,,,,,,,1105
2026-03-27T11:01:29.618470,ATTITUDE,,,,-0.04542797803878784,0.030143219977617264,-2.7280683517456055
2026-03-27T11:01:29.619516,GLOBAL_POSITION_INT,51.4935451,-1.7482659,167.45,,,
2026-03-27T11:01:29.621002,SYS_STATUS,,,,,,,16.386,0.0,100,
2026-03-27T11:01:29.623448,RC_CHANNELS,,,,,,,,,,1105
2026-03-27T11:01:29.818363,ATTITUDE,,,,-0.04793272912502289,0.02354845218360424,-2.7006397247314453
2026-03-27T11:01:29.819594,GLOBAL_POSITION_INT,51.4935452,-1.7482662,167.46,,,
2026-03-27T11:01:29.821043,SYS_STATUS,,,,,,,16.368,0.0,100,
2026-03-27T11:01:29.824562,RC_CHANNELS,,,,,,,,,,1105
2026-03-27T11:01:30.018400,ATTITUDE,,,,-0.06400734931230545,0.032329488545656204,-2.69207763671875
2026-03-27T11:01:30.019176,GLOBAL_POSITION_INT,51.4935454,-1.7482663,167.47,,,
2026-03-27T11:01:30.020553,SYS_STATUS,,,,,,,16.385,0.0,100,
2026-03-27T11:01:30.023896,RC_CHANNELS,,,,,,,,,,1105
2026-03-27T11:01:30.217852,ATTITUDE,,,,-0.04858030378818512,0.009111838415265083,-2.670042037963867
2026-03-27T11:01:30.218865,GLOBAL_POSITION_INT,51.4935456,-1.7482665,167.46,,,
2026-03-27T11:01:30.220069,SYS_STATUS,,,,,,,16.369,0.0,100,
2026-03-27T11:01:30.222753,RC_CHANNELS,,,,,,,,,,1105
2026-03-27T11:01:30.417866,ATTITUDE,,,,-0.04785642772912979,0.028119202703237534,-2.675849437713623
2026-03-27T11:01:30.418982,GLOBAL_POSITION_INT,51.4935457,-1.7482667,167.44,,,
2026-03-27T11:01:30.420615,SYS_STATUS,,,,,,,16.398,0.0,100,
2026-03-27T11:01:30.423575,RC_CHANNELS,,,,,,,,,,1105
2026-03-27T11:01:30.618640,ATTITUDE,,,,-0.04512307792901993,0.036693327128887177,-2.67345929145813
2026-03-27T11:01:30.619759,GLOBAL_POSITION_INT,51.4935458,-1.7482668,167.42,,,
2026-03-27T11:01:30.620811,SYS_STATUS,,,,,,,16.392,0.0,100,
2026-03-27T11:01:30.623299,RC_CHANNELS,,,,,,,,,,1105
2026-03-27T11:01:30.818602,ATTITUDE,,,,-0.021975619718432426,0.06782422959804535,-2.671241521835327
2026-03-27T11:01:30.819840,GLOBAL_POSITION_INT,51.4935457,-1.7482667,167.39,,,
2026-03-27T11:01:30.821212,SYS_STATUS,,,,,,,16.372,0.0,100,
2026-03-27T11:01:30.824460,RC_CHANNELS,,,,,,,,,,1105
2026-03-27T11:01:31.018590,ATTITUDE,,,,-0.03029644303023815,0.05071837827563286,-2.6834075450897217
2026-03-27T11:01:31.019775,GLOBAL_POSITION_INT,51.4935457,-1.7482666,167.37,,,
2026-03-27T11:01:31.021090,SYS_STATUS,,,,,,,16.389,0.0,100,
2026-03-27T11:01:31.024656,RC_CHANNELS,,,,,,,,,,1105
2026-03-27T11:01:31.217838,ATTITUDE,,,,-0.02413957752287388,0.046068884432315826,-2.683638095855713
2026-03-27T11:01:31.218611,GLOBAL_POSITION_INT,51.4935457,-1.7482665,167.35,,,
2026-03-27T11:01:31.219866,SYS_STATUS,,,,,,,16.368,0.0,100,
2026-03-27T11:01:31.222771,RC_CHANNELS,,,,,,,,,,1105
2026-03-27T11:01:31.417832,ATTITUDE,,,,-0.023373013362288475,0.037760380655527115,-2.686973810195923
2026-03-27T11:01:31.419086,GLOBAL_POSITION_INT,51.4935456,-1.7482665,167.33,,,
2026-03-27T11:01:31.420229,SYS_STATUS,,,,,,,16.394,0.0,100,
2026-03-27T11:01:31.423313,RC_CHANNELS,,,,,,,,,,1105
2026-03-27T11:01:31.618590,ATTITUDE,,,,0.007488891948014498,0.02592412568628788,-2.6875393390655518
2026-03-27T11:01:31.619670,GLOBAL_POSITION_INT,51.4935456,-1.7482666,167.33,,,
2026-03-27T11:01:31.621008,SYS_STATUS,,,,,,,16.385,0.0,100,
2026-03-27T11:01:31.623558,RC_CHANNELS,,,,,,,,,,1105
2026-03-27T11:01:31.818735,ATTITUDE,,,,0.005273164249956608,-0.0054300702176988125,-2.6596031188964844
2026-03-27T11:01:31.820189,GLOBAL_POSITION_INT,51.4935456,-1.7482668,167.34,,,
2026-03-27T11:01:31.821552,SYS_STATUS,,,,,,,16.37,0.0,100,
2026-03-27T11:01:31.824229,RC_CHANNELS,,,,,,,,,,1105
2026-03-27T11:01:32.018274,ATTITUDE,,,,-0.005909893661737442,0.006758104078471661,-2.666067123413086
2026-03-27T11:01:32.019576,GLOBAL_POSITION_INT,51.4935457,-1.7482666,167.35,,,
2026-03-27T11:01:32.021074,SYS_STATUS,,,,,,,16.392,0.0,100,
2026-03-27T11:01:32.024557,RC_CHANNELS,,,,,,,,,,1105
2026-03-27T11:01:32.218587,ATTITUDE,,,,0.024567287415266037,-0.0010132850147783756,-2.651981830596924
2026-03-27T11:01:32.220233,GLOBAL_POSITION_INT,51.4935457,-1.7482664,167.35,,,
2026-03-27T11:01:32.221729,SYS_STATUS,,,,,,,16.366,0.0,100,
2026-03-27T11:01:32.224490,RC_CHANNELS,,,,,,,,,,1105
2026-03-27T11:01:32.418254,ATTITUDE,,,,0.01587950438261032,0.0002080509439110756,-2.649087905883789
2026-03-27T11:01:32.419592,GLOBAL_POSITION_INT,51.4935458,-1.7482663,167.36,,,
2026-03-27T11:01:32.420928,SYS_STATUS,,,,,,,16.395,0.0,100,
2026-03-27T11:01:32.423378,RC_CHANNELS,,,,,,,,,,1105
2026-03-27T11:01:32.617895,ATTITUDE,,,,0.018758399412035942,0.008767811581492424,-2.660655975341797
2026-03-27T11:01:32.618949,GLOBAL_POSITION_INT,51.4935459,-1.7482663,167.35,,,
2026-03-27T11:01:32.620019,SYS_STATUS,,,,,,,16.39,0.0,100,
2026-03-27T11:01:32.623164,RC_CHANNELS,,,,,,,,,,1105
2026-03-27T11:01:32.818516,ATTITUDE,,,,0.026307430118322372,0.023053044453263283,-2.679673194885254
2026-03-27T11:01:32.819920,GLOBAL_POSITION_INT,51.493546,-1.7482662,167.32,,,
2026-03-27T11:01:32.821243,SYS_STATUS,,,,,,,16.373,0.0,100,
2026-03-27T11:01:32.823585,RC_CHANNELS,,,,,,,,,,1105
2026-03-27T11:01:33.017906,ATTITUDE,,,,0.015858635306358337,0.019543644040822983,-2.679849624633789
2026-03-27T11:01:33.019117,GLOBAL_POSITION_INT,51.4935461,-1.748266,167.31,,,
2026-03-27T11:01:33.020838,SYS_STATUS,,,,,,,16.389,0.0,100,
2026-03-27T11:01:33.025099,RC_CHANNELS,,,,,,,,,,1105
2026-03-27T11:01:33.217896,ATTITUDE,,,,0.0010118475183844566,0.02531685121357441,-2.6982433795928955
2026-03-27T11:01:33.219242,GLOBAL_POSITION_INT,51.4935461,-1.7482659,167.31,,,
2026-03-27T11:01:33.220814,SYS_STATUS,,,,,,,16.369,0.0,100,
2026-03-27T11:01:33.224229,RC_CHANNELS,,,,,,,,,,1105
2026-03-27T11:01:33.418619,ATTITUDE,,,,-0.005850614979863167,0.01207005139440298,-2.7278430461883545
2026-03-27T11:01:33.419440,GLOBAL_POSITION_INT,51.4935461,-1.7482659,167.3,,,
2026-03-27T11:01:33.420333,SYS_STATUS,,,,,,,16.395,0.0,100,
2026-03-27T11:01:33.422679,RC_CHANNELS,,,,,,,,,,1105
2026-03-27T11:01:33.617956,ATTITUDE,,,,-0.009396091103553772,0.013085728511214256,-2.7499337196350098
2026-03-27T11:01:33.618923,GLOBAL_POSITION_INT,51.4935462,-1.7482659,167.3,,,
2026-03-27T11:01:33.620241,SYS_STATUS,,,,,,,16.388,0.0,100,
2026-03-27T11:01:33.622690,RC_CHANNELS,,,,,,,,,,1105
2026-03-27T11:01:33.818662,ATTITUDE,,,,-0.023103056475520134,0.019893944263458252,-2.7668819427490234
2026-03-27T11:01:33.820155,GLOBAL_POSITION_INT,51.4935462,-1.7482659,167.31,,,
2026-03-27T11:01:33.821428,SYS_STATUS,,,,,,,16.37,0.0,100,
2026-03-27T11:01:33.823640,RC_CHANNELS,,,,,,,,,,1105
2026-03-27T11:01:34.018068,ATTITUDE,,,,-0.013695502653717995,0.037122175097465515,-2.7772300243377686
2026-03-27T11:01:34.019330,GLOBAL_POSITION_INT,51.4935463,-1.7482658,167.31,,,
2026-03-27T11:01:34.020943,SYS_STATUS,,,,,,,16.387,0.0,100,
2026-03-27T11:01:34.024051,RC_CHANNELS,,,,,,,,,,1105
2026-03-27T11:01:34.217956,ATTITUDE,,,,-0.027648502960801125,0.02904105931520462,-2.776902437210083
2026-03-27T11:01:34.219062,GLOBAL_POSITION_INT,51.4935465,-1.7482657,167.32,,,
2026-03-27T11:01:34.220638,SYS_STATUS,,,,,,,16.369,0.0,100,
2026-03-27T11:01:34.223278,RC_CHANNELS,,,,,,,,,,1105
2026-03-27T11:01:34.417832,ATTITUDE,,,,-0.04115962237119675,0.020875317975878716,-2.7906413078308105
2026-03-27T11:01:34.418803,GLOBAL_POSITION_INT,51.4935467,-1.7482657,167.34,,,
2026-03-27T11:01:34.419927,SYS_STATUS,,,,,,,16.397,0.0,100,
2026-03-27T11:01:34.422443,RC_CHANNELS,,,,,,,,,,1105
2026-03-27T11:01:34.617838,ATTITUDE,,,,-0.04260546714067459,0.008514530956745148,-2.8209962844848633
2026-03-27T11:01:34.619016,GLOBAL_POSITION_INT,51.4935468,-1.7482655,167.36,,,
2026-03-27T11:01:34.620281,SYS_STATUS,,,,,,,16.385,0.0,100,
2026-03-27T11:01:34.622696,RC_CHANNELS,,,,,,,,,,1105
2026-03-27T11:01:34.818621,ATTITUDE,,,,-0.04887348413467407,0.029092200100421906,-2.833742141723633
2026-03-27T11:01:34.819581,GLOBAL_POSITION_INT,51.4935469,-1.7482655,167.37,,,
2026-03-27T11:01:34.820455,SYS_STATUS,,,,,,,16.367,0.0,100,
2026-03-27T11:01:34.822963,RC_CHANNELS,,,,,,,,,,1105
2026-03-27T11:01:35.018533,ATTITUDE,,,,-0.04405030608177185,0.0484604686498642,-2.836897373199463
2026-03-27T11:01:35.019787,GLOBAL_POSITION_INT,51.4935469,-1.7482652,167.38,,,
2026-03-27T11:01:35.021188,SYS_STATUS,,,,,,,16.391,0.0,100,
2026-03-27T11:01:35.024380,RC_CHANNELS,,,,,,,,,,1105
2026-03-27T11:01:35.218251,ATTITUDE,,,,-0.013970617204904556,0.03365550562739372,-2.836296319961548
2026-03-27T11:01:35.219232,GLOBAL_POSITION_INT,51.4935467,-1.7482649,167.36,,,
2026-03-27T11:01:35.220430,SYS_STATUS,,,,,,,16.371,0.0,100,
2026-03-27T11:01:35.223062,RC_CHANNELS,,,,,,,,,,1105
2026-03-27T11:01:35.417941,ATTITUDE,,,,0.005662859883159399,0.06615442782640457,-2.853241443634033
2026-03-27T11:01:35.418968,GLOBAL_POSITION_INT,51.4935466,-1.7482649,167.35,,,
2026-03-27T11:01:35.420884,SYS_STATUS,,,,,,,16.394,0.0,100,
2026-03-27T11:01:35.423380,RC_CHANNELS,,,,,,,,,,1105
2026-03-27T11:01:35.618009,ATTITUDE,,,,-0.016691042110323906,0.033612024039030075,-2.87947154045105
2026-03-27T11:01:35.618785,GLOBAL_POSITION_INT,51.4935466,-1.748265,167.36,,,
2026-03-27T11:01:35.619941,SYS_STATUS,,,,,,,16.391,0.0,100,
2026-03-27T11:01:35.623177,RC_CHANNELS,,,,,,,,,,1105
2026-03-27T11:01:35.818691,ATTITUDE,,,,-0.009832004085183144,0.02631637454032898,-2.9086968898773193
2026-03-27T11:01:35.819765,GLOBAL_POSITION_INT,51.4935466,-1.7482651,167.36,,,
2026-03-27T11:01:35.821209,SYS_STATUS,,,,,,,16.367,0.0,100,
2026-03-27T11:01:35.824535,RC_CHANNELS,,,,,,,,,,1105
2026-03-27T11:01:36.018512,ATTITUDE,,,,0.02112196758389473,0.022930974140763283,-2.914590358734131
2026-03-27T11:01:36.019793,GLOBAL_POSITION_INT,51.4935465,-1.7482651,167.35,,,
2026-03-27T11:01:36.021141,SYS_STATUS,,,,,,,16.39,0.0,100,
2026-03-27T11:01:36.023992,RC_CHANNELS,,,,,,,,,,1105
2026-03-27T11:01:36.217825,ATTITUDE,,,,0.008280819281935692,0.017064791172742844,-2.918832540512085
2026-03-27T11:01:36.218757,GLOBAL_POSITION_INT,51.4935464,-1.748265,167.35,,,
2026-03-27T11:01:36.219915,SYS_STATUS,,,,,,,16.366,0.0,100,
2026-03-27T11:01:36.222369,RC_CHANNELS,,,,,,,,,,1105
2026-03-27T11:01:36.417914,ATTITUDE,,,,0.013479556888341904,0.016564052551984787,-2.9419775009155273
2026-03-27T11:01:36.418696,GLOBAL_POSITION_INT,51.4935463,-1.7482651,167.34,,,
2026-03-27T11:01:36.420085,SYS_STATUS,,,,,,,16.395,0.0,100,
2026-03-27T11:01:36.423464,RC_CHANNELS,,,,,,,,,,1105
2026-03-27T11:01:36.617914,ATTITUDE,,,,-0.03693060576915741,0.01879730075597763,-2.971452236175537
2026-03-27T11:01:36.619054,GLOBAL_POSITION_INT,51.4935464,-1.7482652,167.34,,,
2026-03-27T11:01:36.620417,SYS_STATUS,,,,,,,16.39,0.0,100,
2026-03-27T11:01:36.623232,RC_CHANNELS,,,,,,,,,,1105
2026-03-27T11:01:36.818830,ATTITUDE,,,,-0.05820690095424652,0.024124495685100555,-2.967266321182251
2026-03-27T11:01:36.819681,GLOBAL_POSITION_INT,51.4935464,-1.748265,167.34,,,
2026-03-27T11:01:36.820968,SYS_STATUS,,,,,,,16.371,0.0,100,
2026-03-27T11:01:36.824505,RC_CHANNELS,,,,,,,,,,1105
2026-03-27T11:01:37.018298,ATTITUDE,,,,-0.0021205227822065353,0.0446448028087616,-2.9507148265838623
2026-03-27T11:01:37.019595,GLOBAL_POSITION_INT,51.4935464,-1.7482649,167.31,,,
2026-03-27T11:01:37.021134,SYS_STATUS,,,,,,,16.39,0.0,100,
2026-03-27T11:01:37.024907,RC_CHANNELS,,,,,,,,,,1105
2026-03-27T11:01:37.217930,ATTITUDE,,,,-0.011026473715901375,0.06114073097705841,-2.956829071044922
2026-03-27T11:01:37.218983,GLOBAL_POSITION_INT,51.4935463,-1.7482648,167.29,,,
2026-03-27T11:01:37.220800,SYS_STATUS,,,,,,,16.372,0.0,100,
2026-03-27T11:01:37.223824,RC_CHANNELS,,,,,,,,,,1105
2026-03-27T11:01:37.418082,ATTITUDE,,,,-0.023945985361933708,0.046655040234327316,-2.961642026901245
2026-03-27T11:01:37.419000,GLOBAL_POSITION_INT,51.4935463,-1.7482647,167.3,,,
2026-03-27T11:01:37.420838,SYS_STATUS,,,,,,,16.396,0.0,100,
2026-03-27T11:01:37.423509,RC_CHANNELS,,,,,,,,,,1105
2026-03-27T11:01:37.617849,ATTITUDE,,,,-0.06493262946605682,0.047846775501966476,-2.9780125617980957
2026-03-27T11:01:37.618906,GLOBAL_POSITION_INT,51.4935464,-1.7482646,167.34,,,
2026-03-27T11:01:37.620297,SYS_STATUS,,,,,,,16.386,0.0,100,
2026-03-27T11:01:37.623778,RC_CHANNELS,,,,,,,,,,1105
2026-03-27T11:01:37.818705,ATTITUDE,,,,-0.06527765840291977,0.02110219933092594,-2.9424824714660645
2026-03-27T11:01:37.820094,GLOBAL_POSITION_INT,51.4935465,-1.7482645,167.38,,,
2026-03-27T11:01:37.821383,SYS_STATUS,,,,,,,16.369,0.0,100,
2026-03-27T11:01:37.824440,RC_CHANNELS,,,,,,,,,,1105
2026-03-27T11:01:38.018493,ATTITUDE,,,,-0.04537980258464813,0.026028677821159363,-2.9407098293304443
2026-03-27T11:01:38.019832,GLOBAL_POSITION_INT,51.4935466,-1.7482644,167.39,,,
2026-03-27T11:01:38.021194,SYS_STATUS,,,,,,,16.388,0.0,100,
2026-03-27T11:01:38.024575,RC_CHANNELS,,,,,,,,,,1105
2026-03-27T11:01:38.218609,ATTITUDE,,,,-0.040720999240875244,0.01715383306145668,-2.9262850284576416
2026-03-27T11:01:38.219805,GLOBAL_POSITION_INT,51.4935467,-1.7482644,167.42,,,
2026-03-27T11:01:38.220994,SYS_STATUS,,,,,,,16.367,0.0,100,
2026-03-27T11:01:38.223499,RC_CHANNELS,,,,,,,,,,1105
2026-03-27T11:01:38.418008,ATTITUDE,,,,-0.05381942540407181,-0.005143459420651197,-2.9290366172790527
2026-03-27T11:01:38.418807,GLOBAL_POSITION_INT,51.4935467,-1.7482644,167.45,,,
2026-03-27T11:01:38.420076,SYS_STATUS,,,,,,,16.391,0.0,100,
2026-03-27T11:01:38.423623,RC_CHANNELS,,,,,,,,,,1105
2026-03-27T11:01:38.618003,ATTITUDE,,,,-0.060539714992046356,-0.0039096674881875515,-2.9477460384368896
2026-03-27T11:01:38.619061,GLOBAL_POSITION_INT,51.4935468,-1.7482642,167.47,,,
2026-03-27T11:01:38.620367,SYS_STATUS,,,,,,,16.386,0.0,100,
2026-03-27T11:01:38.622893,RC_CHANNELS,,,,,,,,,,1105
2026-03-27T11:01:38.818781,ATTITUDE,,,,-0.04477463662624359,-0.009113725274801254,-2.990401268005371
2026-03-27T11:01:38.820308,GLOBAL_POSITION_INT,51.4935468,-1.748264,167.49,,,
2026-03-27T11:01:38.821587,SYS_STATUS,,,,,,,16.37,0.0,100,
2026-03-27T11:01:38.824178,RC_CHANNELS,,,,,,,,,,1105
2026-03-27T11:01:39.018210,ATTITUDE,,,,-0.038614265620708466,-0.01695539616048336,-3.0104119777679443
2026-03-27T11:01:39.019392,GLOBAL_POSITION_INT,51.4935468,-1.748264,167.5,,,
2026-03-27T11:01:39.021060,SYS_STATUS,,,,,,,16.388,0.0,100,
2026-03-27T11:01:39.024397,RC_CHANNELS,,,,,,,,,,1105
2026-03-27T11:01:39.217937,ATTITUDE,,,,-0.028216267004609108,0.006211487576365471,-3.0216224193573
2026-03-27T11:01:39.219042,GLOBAL_POSITION_INT,51.4935468,-1.7482642,167.51,,,
2026-03-27T11:01:39.220784,SYS_STATUS,,,,,,,16.375,0.0,100,
2026-03-27T11:01:39.223236,RC_CHANNELS,,,,,,,,,,1105
2026-03-27T11:01:39.418553,ATTITUDE,,,,-0.010759815573692322,0.012365279719233513,-3.0112252235412598
2026-03-27T11:01:39.419609,GLOBAL_POSITION_INT,51.4935468,-1.7482643,167.52,,,
2026-03-27T11:01:39.420968,SYS_STATUS,,,,,,,16.395,0.0,100,
2026-03-27T11:01:39.423860,RC_CHANNELS,,,,,,,,,,1105
2026-03-27T11:01:39.618244,ATTITUDE,,,,-0.011828988790512085,0.012212160974740982,-3.0273630619049072
2026-03-27T11:01:39.619544,GLOBAL_POSITION_INT,51.4935468,-1.7482645,167.53,,,
2026-03-27T11:01:39.621017,SYS_STATUS,,,,,,,16.39,0.0,100,
2026-03-27T11:01:39.623845,RC_CHANNELS,,,,,,,,,,1105
2026-03-27T11:01:39.818845,ATTITUDE,,,,-0.006455777212977409,0.007401862647384405,-3.038879632949829
2026-03-27T11:01:39.819986,GLOBAL_POSITION_INT,51.4935468,-1.7482646,167.55,,,
2026-03-27T11:01:39.821290,SYS_STATUS,,,,,,,16.372,0.0,100,
2026-03-27T11:01:39.824685,RC_CHANNELS,,,,,,,,,,1105
2026-03-27T11:01:40.018608,ATTITUDE,,,,-0.009122220799326897,-0.012670420110225677,-3.0550503730773926
2026-03-27T11:01:40.019893,GLOBAL_POSITION_INT,51.4935468,-1.7482648,167.58,,,
2026-03-27T11:01:40.021365,SYS_STATUS,,,,,,,16.385,0.0,100,
2026-03-27T11:01:40.024973,RC_CHANNELS,,,,,,,,,,1105
2026-03-27T11:01:40.218679,ATTITUDE,,,,-0.015501078218221664,0.005498091224581003,-3.106130599975586
2026-03-27T11:01:40.220199,GLOBAL_POSITION_INT,51.4935468,-1.7482649,167.61,,,
2026-03-27T11:01:40.221549,SYS_STATUS,,,,,,,16.365,0.0,100,
2026-03-27T11:01:40.223851,RC_CHANNELS,,,,,,,,,,1105
2026-03-27T11:01:40.418446,ATTITUDE,,,,-0.0036812759935855865,0.11096294969320297,3.0575599670410156
2026-03-27T11:01:40.419524,GLOBAL_POSITION_INT,51.4935468,-1.7482651,167.65,,,
2026-03-27T11:01:40.421164,SYS_STATUS,,,,,,,16.392,0.0,100,
2026-03-27T11:01:40.423886,RC_CHANNELS,,,,,,,,,,1105
2026-03-27T11:01:40.617990,ATTITUDE,,,,-0.00556706078350544,0.09649117290973663,3.003962516784668
2026-03-27T11:01:40.619137,GLOBAL_POSITION_INT,51.4935469,-1.7482652,167.69,,,
2026-03-27T11:01:40.620832,SYS_STATUS,,,,,,,16.386,0.0,100,
2026-03-27T11:01:40.623241,RC_CHANNELS,,,,,,,,,,1105
2026-03-27T11:01:40.818853,ATTITUDE,,,,-0.009562645107507706,0.08912207931280136,2.976954460144043
2026-03-27T11:01:40.820523,GLOBAL_POSITION_INT,51.493547,-1.7482653,167.72,,,
2026-03-27T11:01:40.821701,SYS_STATUS,,,,,,,16.37,0.0,100,
2026-03-27T11:01:40.825026,RC_CHANNELS,,,,,,,,,,1105
2026-03-27T11:01:41.018633,ATTITUDE,,,,-0.0071577876806259155,0.06923026591539383,3.0088274478912354
2026-03-27T11:01:41.019944,GLOBAL_POSITION_INT,51.4935471,-1.7482653,167.72,,,
2026-03-27T11:01:41.021280,SYS_STATUS,,,,,,,16.385,0.0,100,
2026-03-27T11:01:41.024035,RC_CHANNELS,,,,,,,,,,1105
2026-03-27T11:01:41.218824,ATTITUDE,,,,-0.009725559502840042,0.07568464428186417,3.048264980316162
2026-03-27T11:01:41.220323,GLOBAL_POSITION_INT,51.4935471,-1.7482653,167.71,,,
2026-03-27T11:01:41.221516,SYS_STATUS,,,,,,,16.369,0.0,100,
2026-03-27T11:01:41.225269,RC_CHANNELS,,,,,,,,,,1105
2026-03-27T11:01:41.418696,ATTITUDE,,,,-0.005349811166524887,0.04089580476284027,3.0926401615142822
2026-03-27T11:01:41.420099,GLOBAL_POSITION_INT,51.4935472,-1.7482653,167.72,,,
2026-03-27T11:01:41.421274,SYS_STATUS,,,,,,,16.398,0.0,100,
2026-03-27T11:01:41.423623,RC_CHANNELS,,,,,,,,,,1105
2026-03-27T11:01:41.618646,ATTITUDE,,,,0.007582210935652256,0.04680526629090309,3.103097915649414
2026-03-27T11:01:41.619958,GLOBAL_POSITION_INT,51.4935474,-1.7482652,167.73,,,
2026-03-27T11:01:41.621596,SYS_STATUS,,,,,,,16.387,0.0,100,
2026-03-27T11:01:41.625493,RC_CHANNELS,,,,,,,,,,1105
2026-03-27T11:01:41.815661,ATTITUDE,,,,0.0025466959923505783,0.03180936723947525,3.107059955596924
2026-03-27T11:01:41.817601,GLOBAL_POSITION_INT,51.4935474,-1.7482652,167.74,,,
2026-03-27T11:01:41.819677,SYS_STATUS,,,,,,,16.37,0.0,100,
2026-03-27T11:01:41.823075,RC_CHANNELS,,,,,,,,,,1105
2026-03-27T11:01:42.018454,ATTITUDE,,,,0.0022905683144927025,0.023576468229293823,3.106031656265259
2026-03-27T11:01:42.019775,GLOBAL_POSITION_INT,51.4935476,-1.7482651,167.76,,,
2026-03-27T11:01:42.021254,SYS_STATUS,,,,,,,16.392,0.0,100,
2026-03-27T11:01:42.023771,RC_CHANNELS,,,,,,,,,,1105
2026-03-27T11:01:42.218639,ATTITUDE,,,,0.01086161844432354,0.03236519917845726,3.118720531463623
2026-03-27T11:01:42.220045,GLOBAL_POSITION_INT,51.4935478,-1.7482651,167.79,,,
2026-03-27T11:01:42.221116,SYS_STATUS,,,,,,,16.366,0.0,100,
2026-03-27T11:01:42.223382,RC_CHANNELS,,,,,,,,,,1105
2026-03-27T11:01:42.418702,ATTITUDE,,,,0.011208811774849892,0.037534601986408234,3.129786491394043
2026-03-27T11:01:42.419609,GLOBAL_POSITION_INT,51.493548,-1.7482651,167.82,,,
2026-03-27T11:01:42.420623,SYS_STATUS,,,,,,,16.392,0.0,100,
2026-03-27T11:01:42.424563,RC_CHANNELS,,,,,,,,,,1105
2026-03-27T11:01:42.618780,ATTITUDE,,,,0.001798408105969429,0.042852699756622314,3.1304709911346436
2026-03-27T11:01:42.620263,GLOBAL_POSITION_INT,51.4935481,-1.7482651,167.85,,,
2026-03-27T11:01:42.621895,SYS_STATUS,,,,,,,16.384,0.0,100,
2026-03-27T11:01:42.624774,RC_CHANNELS,,,,,,,,,,1105
2026-03-27T11:01:42.818909,ATTITUDE,,,,-0.004825344309210777,0.033004242926836014,3.132652997970581
2026-03-27T11:01:42.820141,GLOBAL_POSITION_INT,51.4935481,-1.7482652,167.88,,,
2026-03-27T11:01:42.821284,SYS_STATUS,,,,,,,16.369,0.0,100,
2026-03-27T11:01:42.824531,RC_CHANNELS,,,,,,,,,,1105
2026-03-27T11:01:43.018450,ATTITUDE,,,,0.0031021330505609512,0.02026139758527279,3.136692523956299
2026-03-27T11:01:43.019332,GLOBAL_POSITION_INT,51.4935481,-1.7482652,167.91,,,
2026-03-27T11:01:43.020439,SYS_STATUS,,,,,,,16.388,0.0,100,
2026-03-27T11:01:43.023344,RC_CHANNELS,,,,,,,,,,1105
2026-03-27T11:01:43.218658,ATTITUDE,,,,0.00889867078512907,0.023199833929538727,-3.1414706707000732
2026-03-27T11:01:43.220132,GLOBAL_POSITION_INT,51.493548,-1.7482653,167.94,,,
2026-03-27T11:01:43.221296,SYS_STATUS,,,,,,,16.366,0.0,100,
2026-03-27T11:01:43.224692,RC_CHANNELS,,,,,,,,,,1105
2026-03-27T11:01:43.418233,ATTITUDE,,,,-0.0003215521574020386,0.043194133788347244,-3.1356844902038574
2026-03-27T11:01:43.419842,GLOBAL_POSITION_INT,51.493548,-1.7482654,167.98,,,
2026-03-27T11:01:43.421157,SYS_STATUS,,,,,,,16.398,0.0,100,
2026-03-27T11:01:43.424407,RC_CHANNELS,,,,,,,,,,1105
2026-03-27T11:01:43.618735,ATTITUDE,,,,-0.0019104862585663795,0.04685775935649872,-3.133547306060791
2026-03-27T11:01:43.620421,GLOBAL_POSITION_INT,51.493548,-1.7482655,168.02,,,
2026-03-27T11:01:43.621513,SYS_STATUS,,,,,,,16.387,0.0,100,
2026-03-27T11:01:43.623818,RC_CHANNELS,,,,,,,,,,1105
2026-03-27T11:01:43.818780,ATTITUDE,,,,-0.010670913383364677,0.040950968861579895,-3.1406466960906982
2026-03-27T11:01:43.820449,GLOBAL_POSITION_INT,51.493548,-1.7482655,168.05,,,
2026-03-27T11:01:43.821562,SYS_STATUS,,,,,,,16.37,0.0,100,
2026-03-27T11:01:43.824356,RC_CHANNELS,,,,,,,,,,1105
2026-03-27T11:01:44.018432,ATTITUDE,,,,9.340699762105942e-05,0.029113775119185448,-3.1338279247283936
2026-03-27T11:01:44.019739,GLOBAL_POSITION_INT,51.4935481,-1.7482656,168.07,,,
2026-03-27T11:01:44.021285,SYS_STATUS,,,,,,,16.387,0.0,100,
2026-03-27T11:01:44.024746,RC_CHANNELS,,,,,,,,,,1105
2026-03-27T11:01:44.218754,ATTITUDE,,,,0.006229767110198736,0.023628976196050644,-3.10990047454834
2026-03-27T11:01:44.219569,GLOBAL_POSITION_INT,51.4935482,-1.7482659,168.09,,,
2026-03-27T11:01:44.220442,SYS_STATUS,,,,,,,16.368,0.0,100,
2026-03-27T11:01:44.223466,RC_CHANNELS,,,,,,,,,,1105
2026-03-27T11:01:44.418027,ATTITUDE,,,,-0.012534473091363907,0.009376266971230507,-3.091428279876709
2026-03-27T11:01:44.419198,GLOBAL_POSITION_INT,51.4935484,-1.7482659,168.11,,,
2026-03-27T11:01:44.420500,SYS_STATUS,,,,,,,16.394,0.0,100,
2026-03-27T11:01:44.422953,RC_CHANNELS,,,,,,,,,,1105
2026-03-27T11:01:44.618024,ATTITUDE,,,,-0.03187696635723114,0.005325433798134327,-3.0709924697875977
2026-03-27T11:01:44.618821,GLOBAL_POSITION_INT,51.4935486,-1.7482658,168.11,,,
2026-03-27T11:01:44.619939,SYS_STATUS,,,,,,,16.384,0.0,100,
2026-03-27T11:01:44.623710,RC_CHANNELS,,,,,,,,,,1105
2026-03-27T11:01:44.818299,ATTITUDE,,,,-0.036853909492492676,0.0032903184182941914,-3.0607802867889404
2026-03-27T11:01:44.820018,GLOBAL_POSITION_INT,51.4935488,-1.7482656,168.11,,,
2026-03-27T11:01:44.821781,SYS_STATUS,,,,,,,16.364,0.0,100,
2026-03-27T11:01:44.824389,RC_CHANNELS,,,,,,,,,,1105
2026-03-27T11:01:45.018837,ATTITUDE,,,,-0.030379174277186394,0.0022403886541724205,-3.0521914958953857
2026-03-27T11:01:45.020223,GLOBAL_POSITION_INT,51.4935489,-1.7482656,168.1,,,
2026-03-27T11:01:45.021341,SYS_STATUS,,,,,,,16.389,0.0,100,
2026-03-27T11:01:45.023659,RC_CHANNELS,,,,,,,,,,1105
2026-03-27T11:01:45.218669,ATTITUDE,,,,-0.03392171114683151,0.00039668241515755653,-3.0393271446228027
2026-03-27T11:01:45.220220,GLOBAL_POSITION_INT,51.4935489,-1.7482654,168.09,,,
2026-03-27T11:01:45.221559,SYS_STATUS,,,,,,,16.366,0.0,100,
2026-03-27T11:01:45.224900,RC_CHANNELS,,,,,,,,,,1105
2026-03-27T11:01:45.417965,ATTITUDE,,,,-0.03867807984352112,-0.0012511336244642735,-3.0278124809265137
2026-03-27T11:01:45.418865,GLOBAL_POSITION_INT,51.4935489,-1.7482652,168.09,,,
2026-03-27T11:01:45.420147,SYS_STATUS,,,,,,,16.394,0.0,100,
2026-03-27T11:01:45.422837,RC_CHANNELS,,,,,,,,,,1105
2026-03-27T11:01:45.618854,ATTITUDE,,,,-0.038271501660346985,-0.0002171373926103115,-3.0166878700256348
2026-03-27T11:01:45.620627,GLOBAL_POSITION_INT,51.4935488,-1.7482651,168.09,,,
2026-03-27T11:01:45.622177,SYS_STATUS,,,,,,,16.387,0.0,100,
2026-03-27T11:01:45.625858,RC_CHANNELS,,,,,,,,,,1105
2026-03-27T11:01:45.818998,ATTITUDE,,,,-0.04448036849498749,-0.007747258525341749,-3.008920907974243
2026-03-27T11:01:45.820537,GLOBAL_POSITION_INT,51.4935486,-1.748265,168.09,,,
2026-03-27T11:01:45.821667,SYS_STATUS,,,,,,,16.369,0.0,100,
2026-03-27T11:01:45.824269,RC_CHANNELS,,,,,,,,,,1105
2026-03-27T11:01:46.018638,ATTITUDE,,,,-0.041228629648685455,-0.0059896125458180904,-3.006377935409546
2026-03-27T11:01:46.019403,GLOBAL_POSITION_INT,51.4935485,-1.7482649,168.09,,,
2026-03-27T11:01:46.020632,SYS_STATUS,,,,,,,16.392,0.0,100,
2026-03-27T11:01:46.023482,RC_CHANNELS,,,,,,,,,,1105
2026-03-27T11:01:46.218804,ATTITUDE,,,,-0.03618045896291733,-0.006139155011624098,-2.992558002471924
2026-03-27T11:01:46.220528,GLOBAL_POSITION_INT,51.4935484,-1.748265,168.09,,,
2026-03-27T11:01:46.221772,SYS_STATUS,,,,,,,16.368,0.0,100,
2026-03-27T11:01:46.224812,RC_CHANNELS,,,,,,,,,,1105
2026-03-27T11:01:46.418141,ATTITUDE,,,,-0.040310636162757874,-0.012672707438468933,-2.9957265853881836
2026-03-27T11:01:46.418858,GLOBAL_POSITION_INT,51.4935484,-1.7482652,168.08,,,
2026-03-27T11:01:46.419765,SYS_STATUS,,,,,,,16.392,0.0,100,
2026-03-27T11:01:46.422359,RC_CHANNELS,,,,,,,,,,1105
2026-03-27T11:01:46.617999,ATTITUDE,,,,-0.044112659990787506,-0.012319274246692657,-2.999187707901001
2026-03-27T11:01:46.619018,GLOBAL_POSITION_INT,51.4935481,-1.7482654,168.07,,,
2026-03-27T11:01:46.620776,SYS_STATUS,,,,,,,16.384,0.0,100,
2026-03-27T11:01:46.623459,RC_CHANNELS,,,,,,,,,,1105
2026-03-27T11:01:46.818863,ATTITUDE,,,,-0.04022371023893356,-0.013247713446617126,-2.9997971057891846
2026-03-27T11:01:46.820420,GLOBAL_POSITION_INT,51.493548,-1.7482655,168.06,,,
2026-03-27T11:01:46.821675,SYS_STATUS,,,,,,,16.365,0.0,100,
2026-03-27T11:01:46.823933,RC_CHANNELS,,,,,,,,,,1105
2026-03-27T11:01:47.018602,ATTITUDE,,,,-0.0392472967505455,-0.013195004314184189,-3.005890130996704
2026-03-27T11:01:47.019758,GLOBAL_POSITION_INT,51.4935478,-1.7482656,168.05,,,
2026-03-27T11:01:47.021161,SYS_STATUS,,,,,,,16.388,0.0,100,
2026-03-27T11:01:47.024316,RC_CHANNELS,,,,,,,,,,1105
2026-03-27T11:01:47.218471,ATTITUDE,,,,-0.03697264939546585,-0.02033476158976555,-3.0180654525756836
2026-03-27T11:01:47.219989,GLOBAL_POSITION_INT,51.4935476,-1.7482658,168.03,,,
2026-03-27T11:01:47.221366,SYS_STATUS,,,,,,,16.363,0.0,100,
2026-03-27T11:01:47.224505,RC_CHANNELS,,,,,,,,,,1105
2026-03-27T11:01:47.418341,ATTITUDE,,,,-0.03386901319026947,-0.02014089934527874,-3.0265133380889893
2026-03-27T11:01:47.419216,GLOBAL_POSITION_INT,51.4935475,-1.748266,168.01,,,
2026-03-27T11:01:47.420540,SYS_STATUS,,,,,,,16.389,0.0,100,
2026-03-27T11:01:47.423795,RC_CHANNELS,,,,,,,,,,1105
2026-03-27T11:01:47.618751,ATTITUDE,,,,-0.035833798348903656,-0.015392214059829712,-3.025470018386841
2026-03-27T11:01:47.620442,GLOBAL_POSITION_INT,51.4935474,-1.7482662,167.99,,,
2026-03-27T11:01:47.621597,SYS_STATUS,,,,,,,16.388,0.0,100,
2026-03-27T11:01:47.625191,RC_CHANNELS,,,,,,,,,,1105
2026-03-27T11:01:47.818763,ATTITUDE,,,,-0.02507985197007656,-0.01589474454522133,-3.016934871673584
2026-03-27T11:01:47.819945,GLOBAL_POSITION_INT,51.4935473,-1.7482663,167.96,,,
2026-03-27T11:01:47.821430,SYS_STATUS,,,,,,,16.366,0.0,100,
2026-03-27T11:01:47.824682,RC_CHANNELS,,,,,,,,,,1105
2026-03-27T11:01:48.018606,ATTITUDE,,,,-0.025721313431859016,-0.012601247057318687,-3.0130772590637207
2026-03-27T11:01:48.019993,GLOBAL_POSITION_INT,51.4935473,-1.7482663,167.94,,,
2026-03-27T11:01:48.021399,SYS_STATUS,,,,,,,16.392,0.0,100,
2026-03-27T11:01:48.025400,RC_CHANNELS,,,,,,,,,,1105
2026-03-27T11:01:48.218853,ATTITUDE,,,,-0.02398636005818844,-0.019374221563339233,-3.0022947788238525
2026-03-27T11:01:48.220399,GLOBAL_POSITION_INT,51.4935472,-1.7482663,167.92,,,
2026-03-27T11:01:48.221466,SYS_STATUS,,,,,,,16.369,0.0,100,
2026-03-27T11:01:48.223845,RC_CHANNELS,,,,,,,,,,1105
2026-03-27T11:01:48.418765,ATTITUDE,,,,-0.023220857605338097,-0.023358799517154694,-3.000497341156006
2026-03-27T11:01:48.419578,GLOBAL_POSITION_INT,51.4935472,-1.7482663,167.89,,,
2026-03-27T11:01:48.420857,SYS_STATUS,,,,,,,16.391,0.0,100,
2026-03-27T11:01:48.423769,RC_CHANNELS,,,,,,,,,,1105
2026-03-27T11:01:48.618762,ATTITUDE,,,,-0.02457703836262226,-0.031176196411252022,-2.9967010021209717
2026-03-27T11:01:48.620545,GLOBAL_POSITION_INT,51.4935471,-1.7482663,167.87,,,
2026-03-27T11:01:48.621726,SYS_STATUS,,,,,,,16.379,0.0,100,
2026-03-27T11:01:48.624391,RC_CHANNELS,,,,,,,,,,1105
2026-03-27T11:01:48.818841,ATTITUDE,,,,-0.03819125145673752,-0.03855600208044052,-2.9737372398376465
2026-03-27T11:01:48.819846,GLOBAL_POSITION_INT,51.4935471,-1.7482663,167.85,,,
2026-03-27T11:01:48.820742,SYS_STATUS,,,,,,,16.367,0.0,100,
2026-03-27T11:01:48.823748,RC_CHANNELS,,,,,,,,,,1105
2026-03-27T11:01:49.018770,ATTITUDE,,,,-0.033637888729572296,-0.03605751320719719,-2.9715065956115723
2026-03-27T11:01:49.020376,GLOBAL_POSITION_INT,51.493547,-1.7482663,167.82,,,
2026-03-27T11:01:49.021724,SYS_STATUS,,,,,,,16.387,0.0,100,
2026-03-27T11:01:49.024840,RC_CHANNELS,,,,,,,,,,1105
2026-03-27T11:01:49.218115,ATTITUDE,,,,-0.030600806698203087,-0.03609957545995712,-2.96305513381958
2026-03-27T11:01:49.219057,GLOBAL_POSITION_INT,51.493547,-1.7482663,167.79,,,
2026-03-27T11:01:49.220203,SYS_STATUS,,,,,,,16.366,0.0,100,
2026-03-27T11:01:49.223014,RC_CHANNELS,,,,,,,,,,1105
2026-03-27T11:01:49.418863,ATTITUDE,,,,-0.03955703228712082,-0.03221842646598816,-2.95508074760437
2026-03-27T11:01:49.420277,GLOBAL_POSITION_INT,51.4935469,-1.7482662,167.75,,,
2026-03-27T11:01:49.421589,SYS_STATUS,,,,,,,16.392,0.0,100,
2026-03-27T11:01:49.425960,RC_CHANNELS,,,,,,,,,,1105
2026-03-27T11:01:49.619154,ATTITUDE,,,,-0.038399383425712585,-0.02605525217950344,-2.955247163772583
2026-03-27T11:01:49.620312,GLOBAL_POSITION_INT,51.4935469,-1.7482661,167.74,,,
2026-03-27T11:01:49.621315,SYS_STATUS,,,,,,,16.39,0.0,100,
2026-03-27T11:01:49.623769,RC_CHANNELS,,,,,,,,,,1105
2026-03-27T11:01:49.818891,ATTITUDE,,,,-0.03580816090106964,0.009801385924220085,-2.9716622829437256
2026-03-27T11:01:49.820654,GLOBAL_POSITION_INT,51.4935468,-1.7482661,167.73,,,
2026-03-27T11:01:49.821808,SYS_STATUS,,,,,,,16.368,0.0,100,
2026-03-27T11:01:49.825357,RC_CHANNELS,,,,,,,,,,1105
2026-03-27T11:01:50.018672,ATTITUDE,,,,-0.053856201469898224,0.018312636762857437,-2.9791903495788574
2026-03-27T11:01:50.020179,GLOBAL_POSITION_INT,51.4935467,-1.748266,167.72,,,
2026-03-27T11:01:50.021224,SYS_STATUS,,,,,,,16.385,0.0,100,
2026-03-27T11:01:50.023487,RC_CHANNELS,,,,,,,,,,1105
2026-03-27T11:01:50.218811,ATTITUDE,,,,-0.06663303822278976,0.0056508127599954605,-2.9995033740997314
2026-03-27T11:01:50.220158,GLOBAL_POSITION_INT,51.4935467,-1.7482659,167.72,,,
2026-03-27T11:01:50.221664,SYS_STATUS,,,,,,,16.37,0.0,100,
2026-03-27T11:01:50.225488,RC_CHANNELS,,,,,,,,,,1105
2026-03-27T11:01:50.418811,ATTITUDE,,,,-0.049153245985507965,-0.02504688687622547,-3.0198469161987305
2026-03-27T11:01:50.420379,GLOBAL_POSITION_INT,51.4935466,-1.7482658,167.7,,,
2026-03-27T11:01:50.421774,SYS_STATUS,,,,,,,16.393,0.0,100,
2026-03-27T11:01:50.425031,RC_CHANNELS,,,,,,,,,,1105
2026-03-27T11:01:50.618043,ATTITUDE,,,,-0.00786898098886013,-0.03131859749555588,-3.0846025943756104
2026-03-27T11:01:50.619349,GLOBAL_POSITION_INT,51.4935463,-1.7482658,167.66,,,
2026-03-27T11:01:50.620859,SYS_STATUS,,,,,,,16.386,0.0,100,
2026-03-27T11:01:50.623683,RC_CHANNELS,,,,,,,,,,1105
2026-03-27T11:01:50.819131,ATTITUDE,,,,0.0008261483162641525,-0.0070127747021615505,-3.133723735809326
2026-03-27T11:01:50.820128,GLOBAL_POSITION_INT,51.4935462,-1.7482659,167.64,,,
2026-03-27T11:01:50.820969,SYS_STATUS,,,,,,,16.371,0.0,100,
2026-03-27T11:01:50.824217,RC_CHANNELS,,,,,,,,,,1105
2026-03-27T11:01:51.018899,ATTITUDE,,,,-0.015204723924398422,0.0006312900222837925,3.1079423427581787
2026-03-27T11:01:51.020748,GLOBAL_POSITION_INT,51.4935462,-1.7482661,167.64,,,
2026-03-27T11:01:51.022401,SYS_STATUS,,,,,,,16.385,0.0,100,
2026-03-27T11:01:51.025240,RC_CHANNELS,,,,,,,,,,1105
2026-03-27T11:01:51.218851,ATTITUDE,,,,-0.012461010366678238,0.020507577806711197,3.110258102416992
2026-03-27T11:01:51.219850,GLOBAL_POSITION_INT,51.4935462,-1.7482662,167.65,,,
2026-03-27T11:01:51.220718,SYS_STATUS,,,,,,,16.367,0.0,100,
2026-03-27T11:01:51.223937,RC_CHANNELS,,,,,,,,,,1105
2026-03-27T11:01:51.418689,ATTITUDE,,,,-0.0020046159625053406,0.014015980064868927,3.117102861404419
2026-03-27T11:01:51.419836,GLOBAL_POSITION_INT,51.4935462,-1.7482662,167.66,,,
2026-03-27T11:01:51.421420,SYS_STATUS,,,,,,,16.39,0.0,100,
2026-03-27T11:01:51.424058,RC_CHANNELS,,,,,,,,,,1105
2026-03-27T11:01:51.618795,ATTITUDE,,,,-0.0010809842497110367,0.00606596190482378,3.128147840499878
2026-03-27T11:01:51.619893,GLOBAL_POSITION_INT,51.4935461,-1.7482663,167.67,,,
2026-03-27T11:01:51.621038,SYS_STATUS,,,,,,,16.385,0.0,100,
2026-03-27T11:01:51.623832,RC_CHANNELS,,,,,,,,,,1105
2026-03-27T11:01:51.818847,ATTITUDE,,,,-0.010129300877451897,0.009685371071100235,3.137774705886841
2026-03-27T11:01:51.820535,GLOBAL_POSITION_INT,51.4935461,-1.7482664,167.68,,,
2026-03-27T11:01:51.821871,SYS_STATUS,,,,,,,16.371,0.0,100,
2026-03-27T11:01:51.824930,RC_CHANNELS,,,,,,,,,,1105
2026-03-27T11:01:52.018101,ATTITUDE,,,,-0.01675870642066002,-0.008166709914803505,3.137234687805176
2026-03-27T11:01:52.019229,GLOBAL_POSITION_INT,51.4935461,-1.7482665,167.69,,,
2026-03-27T11:01:52.021021,SYS_STATUS,,,,,,,16.386,0.0,100,
2026-03-27T11:01:52.023802,RC_CHANNELS,,,,,,,,,,1105
2026-03-27T11:01:52.218861,ATTITUDE,,,,-0.019365066662430763,0.005880901589989662,3.1323254108428955
2026-03-27T11:01:52.220596,GLOBAL_POSITION_INT,51.4935461,-1.7482665,167.68,,,
2026-03-27T11:01:52.222297,SYS_STATUS,,,,,,,16.366,0.0,100,
2026-03-27T11:01:52.225631,RC_CHANNELS,,,,,,,,,,1105
2026-03-27T11:01:52.418844,ATTITUDE,,,,-0.020975003018975258,0.014116819947957993,3.1279382705688477
2026-03-27T11:01:52.420532,GLOBAL_POSITION_INT,51.4935461,-1.7482665,167.67,,,
2026-03-27T11:01:52.422066,SYS_STATUS,,,,,,,16.394,0.0,100,
2026-03-27T11:01:52.425696,RC_CHANNELS,,,,,,,,,,1105
2026-03-27T11:01:52.619102,ATTITUDE,,,,-0.021451430395245552,0.0072121513076126575,3.133288621902466
2026-03-27T11:01:52.620205,GLOBAL_POSITION_INT,51.4935461,-1.7482665,167.67,,,
2026-03-27T11:01:52.621331,SYS_STATUS,,,,,,,16.386,0.0,100,
2026-03-27T11:01:52.624677,RC_CHANNELS,,,,,,,,,,1105
2026-03-27T11:01:52.817526,ATTITUDE,,,,-0.02156425453722477,-0.005751040298491716,3.1282737255096436
2026-03-27T11:01:52.818789,GLOBAL_POSITION_INT,51.4935461,-1.7482665,167.68,,,
2026-03-27T11:01:52.820815,SYS_STATUS,,,,,,,16.366,0.0,100,
2026-03-27T11:01:52.823747,RC_CHANNELS,,,,,,,,,,1105
2026-03-27T11:01:53.018638,ATTITUDE,,,,-0.02398611791431904,-0.0034165033139288425,3.121713876724243
2026-03-27T11:01:53.019831,GLOBAL_POSITION_INT,51.4935461,-1.7482665,167.68,,,
2026-03-27T11:01:53.021353,SYS_STATUS,,,,,,,16.388,0.0,100,
2026-03-27T11:01:53.025053,RC_CHANNELS,,,,,,,,,,1105
2026-03-27T11:01:53.218778,ATTITUDE,,,,-0.016192641109228134,-0.0003441846929490566,3.1236000061035156
2026-03-27T11:01:53.220462,GLOBAL_POSITION_INT,51.493546,-1.7482666,167.66,,,
2026-03-27T11:01:53.221622,SYS_STATUS,,,,,,,16.365,0.0,100,
2026-03-27T11:01:53.224766,RC_CHANNELS,,,,,,,,,,1105
2026-03-27T11:01:53.418887,ATTITUDE,,,,-0.013646060600876808,-0.009657952934503555,3.133603811264038
2026-03-27T11:01:53.420114,GLOBAL_POSITION_INT,51.493546,-1.7482667,167.66,,,
2026-03-27T11:01:53.421491,SYS_STATUS,,,,,,,16.385,0.0,100,
2026-03-27T11:01:53.424335,RC_CHANNELS,,,,,,,,,,1105
2026-03-27T11:01:53.618812,ATTITUDE,,,,-0.02368880622088909,-0.008691754192113876,3.1358840465545654
2026-03-27T11:01:53.620169,GLOBAL_POSITION_INT,51.493546,-1.7482667,167.67,,,
2026-03-27T11:01:53.621407,SYS_STATUS,,,,,,,16.382,0.0,100,
2026-03-27T11:01:53.624149,RC_CHANNELS,,,,,,,,,,1105
2026-03-27T11:01:53.819028,ATTITUDE,,,,-0.018457578495144844,-0.009879883378744125,3.138577461242676
2026-03-27T11:01:53.820542,GLOBAL_POSITION_INT,51.493546,-1.7482667,167.67,,,
2026-03-27T11:01:53.821711,SYS_STATUS,,,,,,,16.376,0.0,100,
2026-03-27T11:01:53.824312,RC_CHANNELS,,,,,,,,,,1105
2026-03-27T11:01:54.018832,ATTITUDE,,,,-0.021021312102675438,-0.007024770136922598,-3.1392972469329834
2026-03-27T11:01:54.020291,GLOBAL_POSITION_INT,51.493546,-1.7482667,167.66,,,
2026-03-27T11:01:54.021977,SYS_STATUS,,,,,,,16.378,0.0,100,
2026-03-27T11:01:54.024630,RC_CHANNELS,,,,,,,,,,1105
2026-03-27T11:01:54.218099,ATTITUDE,,,,-0.016232281923294067,-0.014464953914284706,-3.1353275775909424
2026-03-27T11:01:54.219085,GLOBAL_POSITION_INT,51.493546,-1.7482666,167.66,,,
2026-03-27T11:01:54.221087,SYS_STATUS,,,,,,,16.386,0.0,100,
2026-03-27T11:01:54.224322,RC_CHANNELS,,,,,,,,,,1105
2026-03-27T11:01:54.418029,ATTITUDE,,,,-0.013969963416457176,-0.01605224795639515,-3.1312601566314697
2026-03-27T11:01:54.419398,GLOBAL_POSITION_INT,51.493546,-1.7482666,167.66,,,
2026-03-27T11:01:54.420812,SYS_STATUS,,,,,,,16.392,0.0,100,
2026-03-27T11:01:54.423791,RC_CHANNELS,,,,,,,,,,1105
2026-03-27T11:01:54.618089,ATTITUDE,,,,-0.020967422053217888,-0.015583522617816925,-3.1230435371398926
2026-03-27T11:01:54.619035,GLOBAL_POSITION_INT,51.493546,-1.7482666,167.66,,,
2026-03-27T11:01:54.620816,SYS_STATUS,,,,,,,16.387,0.0,100,
2026-03-27T11:01:54.623387,RC_CHANNELS,,,,,,,,,,1105
2026-03-27T11:01:54.819110,ATTITUDE,,,,-0.013886360451579094,-0.024520503357052803,-3.1210601329803467
2026-03-27T11:01:54.820233,GLOBAL_POSITION_INT,51.493546,-1.7482666,167.66,,,
2026-03-27T11:01:54.821108,SYS_STATUS,,,,,,,16.363,0.0,100,
2026-03-27T11:01:54.823469,RC_CHANNELS,,,,,,,,,,1105
2026-03-27T11:01:55.018868,ATTITUDE,,,,-0.021140234544873238,-0.030182113870978355,-3.1241815090179443
2026-03-27T11:01:55.020151,GLOBAL_POSITION_INT,51.493546,-1.7482665,167.66,,,
2026-03-27T11:01:55.021471,SYS_STATUS,,,,,,,16.382,0.0,100,
2026-03-27T11:01:55.025000,RC_CHANNELS,,,,,,,,,,1105
2026-03-27T11:01:55.218853,ATTITUDE,,,,-0.026068372651934624,-0.029471999034285545,-3.1206257343292236
2026-03-27T11:01:55.220528,GLOBAL_POSITION_INT,51.493546,-1.7482664,167.66,,,
2026-03-27T11:01:55.222000,SYS_STATUS,,,,,,,16.367,0.0,100,
2026-03-27T11:01:55.225126,RC_CHANNELS,,,,,,,,,,1105
2026-03-27T11:01:55.418846,ATTITUDE,,,,-0.021830661222338676,-0.026759637519717216,-3.1092214584350586
2026-03-27T11:01:55.419840,GLOBAL_POSITION_INT,51.493546,-1.7482664,167.64,,,
2026-03-27T11:01:55.421412,SYS_STATUS,,,,,,,16.392,0.0,100,
2026-03-27T11:01:55.425741,RC_CHANNELS,,,,,,,,,,1105
2026-03-27T11:01:55.618133,ATTITUDE,,,,-0.01918829418718815,-0.023792630061507225,-3.0974674224853516
2026-03-27T11:01:55.619362,GLOBAL_POSITION_INT,51.4935461,-1.7482662,167.62,,,
2026-03-27T11:01:55.620527,SYS_STATUS,,,,,,,16.388,0.0,100,
2026-03-27T11:01:55.623278,RC_CHANNELS,,,,,,,,,,1105
2026-03-27T11:01:55.817553,ATTITUDE,,,,-0.015911046415567398,-0.036641620099544525,-3.096271276473999
2026-03-27T11:01:55.818890,GLOBAL_POSITION_INT,51.4935461,-1.7482661,167.6,,,
2026-03-27T11:01:55.820982,SYS_STATUS,,,,,,,16.366,0.0,100,
2026-03-27T11:01:55.823227,RC_CHANNELS,,,,,,,,,,1105
2026-03-27T11:01:56.019055,ATTITUDE,,,,-0.015814537182450294,0.006281707435846329,-3.088970899581909
2026-03-27T11:01:56.020783,GLOBAL_POSITION_INT,51.493546,-1.7482659,167.57,,,
2026-03-27T11:01:56.021795,SYS_STATUS,,,,,,,16.387,0.0,100,
2026-03-27T11:01:56.024519,RC_CHANNELS,,,,,,,,,,1105
2026-03-27T11:01:56.218811,ATTITUDE,,,,0.013144046999514103,0.009064991027116776,-3.093029022216797
2026-03-27T11:01:56.220515,GLOBAL_POSITION_INT,51.493546,-1.7482656,167.52,,,
2026-03-27T11:01:56.221676,SYS_STATUS,,,,,,,16.366,0.0,100,
2026-03-27T11:01:56.223837,RC_CHANNELS,,,,,,,,,,1105
2026-03-27T11:01:56.418898,ATTITUDE,,,,0.015774372965097427,0.026155930012464523,-3.1076579093933105
2026-03-27T11:01:56.419992,GLOBAL_POSITION_INT,51.493546,-1.7482656,167.47,,,
2026-03-27T11:01:56.420894,SYS_STATUS,,,,,,,16.395,0.0,100,
2026-03-27T11:01:56.423280,RC_CHANNELS,,,,,,,,,,1105
2026-03-27T11:01:56.619075,ATTITUDE,,,,0.01571863889694214,0.08863799273967743,3.1312263011932373
2026-03-27T11:01:56.620825,GLOBAL_POSITION_INT,51.493546,-1.7482656,167.44,,,
2026-03-27T11:01:56.622019,SYS_STATUS,,,,,,,16.388,0.0,100,
2026-03-27T11:01:56.625034,RC_CHANNELS,,,,,,,,,,1105
2026-03-27T11:01:56.818982,ATTITUDE,,,,0.019100118428468704,0.09248683601617813,3.065622568130493
2026-03-27T11:01:56.820569,GLOBAL_POSITION_INT,51.4935463,-1.7482655,167.41,,,
2026-03-27T11:01:56.821726,SYS_STATUS,,,,,,,16.369,0.0,100,
2026-03-27T11:01:56.823861,RC_CHANNELS,,,,,,,,,,1105
2026-03-27T11:01:57.018937,ATTITUDE,,,,-0.00873563438653946,0.05005302280187607,3.013221263885498
2026-03-27T11:01:57.020127,GLOBAL_POSITION_INT,51.4935465,-1.7482652,167.39,,,
2026-03-27T11:01:57.021764,SYS_STATUS,,,,,,,16.392,0.0,100,
2026-03-27T11:01:57.024915,RC_CHANNELS,,,,,,,,,,1105
2026-03-27T11:01:57.218905,ATTITUDE,,,,-0.02894739992916584,0.07270940393209457,2.973841905593872
2026-03-27T11:01:57.220634,GLOBAL_POSITION_INT,51.4935465,-1.7482647,167.36,,,
2026-03-27T11:01:57.221836,SYS_STATUS,,,,,,,16.363,0.0,100,
2026-03-27T11:01:57.224451,RC_CHANNELS,,,,,,,,,,1105
2026-03-27T11:01:57.418885,ATTITUDE,,,,-0.019538937136530876,0.06084909290075302,2.9415504932403564
2026-03-27T11:01:57.420597,GLOBAL_POSITION_INT,51.4935464,-1.7482642,167.34,,,
2026-03-27T11:01:57.421993,SYS_STATUS,,,,,,,16.39,0.0,100,
2026-03-27T11:01:57.425779,RC_CHANNELS,,,,,,,,,,1105
2026-03-27T11:01:57.618918,ATTITUDE,,,,-0.10315170139074326,0.010702860541641712,2.979952812194824
