timestamp,msg_type,lat,lon,alt,roll,pitch,yaw,voltage,current,battery_remaining,throttle,,,AIRSPEED,7 m/s
2026-03-27T11:01:17.457932,ATTITUDE,,,,-0.071746096,0.092808917,-2.448824644,,,,,,,,
2026-03-27T11:01:17.465086,GLOBAL_POSITION_INT,51.4935462,-1.7482671,167.2,,,,,,,,,,,
2026-03-27T11:01:17.466121,SYS_STATUS,,,,,,,16.374,0,100,,,,,
2026-03-27T11:01:17.468577,RC_CHANNELS,,,,,,,,,,1105,,,,
2026-03-27T11:01:17.475039,ATTITUDE,,,,-0.077371746,0.072595298,-2.462874889,,,,,,,,
2026-03-27T11:01:17.475881,GLOBAL_POSITION_INT,51.493546,-1.7482671,167.2,,,,,,,,,,,
2026-03-27T11:01:17.476936,SYS_STATUS,,,,,,,16.397,0,100,,,,,
2026-03-27T11:01:17.479302,RC_CHANNELS,,,,,,,,,,1105,,,,
2026-03-27T11:01:17.618370,ATTITUDE,,,,-0.077752858,0.073990755,-2.468188524,,,,,,,,
2026-03-27T11:01:17.619432,GLOBAL_POSITION_INT,51.4935459,-1.7482672,167.19,,,,,,,,,,,
2026-03-27T11:01:17.620618,SYS_STATUS,,,,,,,16.393,0,100,,,,,
2026-03-27T11:01:17.623180,RC_CHANNELS,,,,,,,,,,1105,,,,
2026-03-27T11:01:17.818376,ATTITUDE,,,,-0.072910726,0.062735483,-2.471175194,,,,,,,,
2026-03-27T11:01:17.819966,GLOBAL_POSITION_INT,51.4935458,-1.7482672,167.19,,,,,,,,,,,
2026-03-27T11:01:17.821268,SYS_STATUS,,,,,,,16.369,0,100,,,,,
2026-03-27T11:01:17.824070,RC_CHANNELS,,,,,,,,,,1105,,,,
2026-03-27T11:01:18.017719,ATTITUDE,,,,-0.072478049,0.063226536,-2.479648352,,,,,,,,
2026-03-27T11:01:18.018775,GLOBAL_POSITION_INT,51.4935458,-1.7482673,167.18,,,,,,,,,,,
2026-03-27T11:01:18.020063,SYS_STATUS,,,,,,,16.394,0,100,,,,,
2026-03-27T11:01:18.022956,RC_CHANNELS,,,,,,,,,,1105,,,,
2026-03-27T11:01:18.218601,ATTITUDE,,,,-0.061471947,0.062071621,-2.472460032,,,,,,,,
2026-03-27T11:01:18.219543,GLOBAL_POSITION_INT,51.4935457,-1.7482673,167.17,,,,,,,,,,,
2026-03-27T11:01:18.220400,SYS_STATUS,,,,,,,16.37,0,100,,,,,
2026-03-27T11:01:18.223176,RC_CHANNELS,,,,,,,,,,1105,,,,
2026-03-27T11:01:18.417817,ATTITUDE,,,,-0.059494413,0.044770699,-2.468906403,,,,,,,,
2026-03-27T11:01:18.418801,GLOBAL_POSITION_INT,51.4935457,-1.7482672,167.15,,,,,,,,,,,
2026-03-27T11:01:18.420384,SYS_STATUS,,,,,,,16.398,0,100,,,,,
2026-03-27T11:01:18.422870,RC_CHANNELS,,,,,,,,,,1105,,,,
2026-03-27T11:01:18.617757,ATTITUDE,,,,-0.075831458,0.048061866,-2.481935263,,,,,,,,
2026-03-27T11:01:18.618927,GLOBAL_POSITION_INT,51.4935456,-1.7482673,167.13,,,,,,,,,,,
2026-03-27T11:01:18.620257,SYS_STATUS,,,,,,,16.388,0,100,,,,,
2026-03-27T11:01:18.623137,RC_CHANNELS,,,,,,,,,,1105,,,,
2026-03-27T11:01:18.818406,ATTITUDE,,,,-0.072520912,0.065860361,-2.486854076,,,,,,,,
2026-03-27T11:01:18.819700,GLOBAL_POSITION_INT,51.4935455,-1.7482673,167.1,,,,,,,,,,,
2026-03-27T11:01:18.820987,SYS_STATUS,,,,,,,16.371,0,100,,,,,
2026-03-27T11:01:18.823788,RC_CHANNELS,,,,,,,,,,1105,,,,
2026-03-27T11:01:19.018017,ATTITUDE,,,,-0.071421601,0.075376347,-2.492758512,,,,,,,,
2026-03-27T11:01:19.019351,GLOBAL_POSITION_INT,51.4935455,-1.7482672,167.08,,,,,,,,,,,
2026-03-27T11:01:19.020591,SYS_STATUS,,,,,,,16.389,0,100,,,,,
2026-03-27T11:01:19.023141,RC_CHANNELS,,,,,,,,,,1105,,,,
2026-03-27T11:01:19.218496,ATTITUDE,,,,-0.080153637,0.042871945,-2.489706039,,,,,,,,
2026-03-27T11:01:19.219624,GLOBAL_POSITION_INT,51.4935456,-1.7482672,167.06,,,,,,,,,,,
2026-03-27T11:01:19.220890,SYS_STATUS,,,,,,,16.371,0,100,,,,,
2026-03-27T11:01:19.223643,RC_CHANNELS,,,,,,,,,,1105,,,,
2026-03-27T11:01:19.418294,ATTITUDE,,,,-0.101345837,0.045052331,-2.494080305,,,,,,,,
2026-03-27T11:01:19.419071,GLOBAL_POSITION_INT,51.4935456,-1.7482672,167.04,,,,,,,,,,,
2026-03-27T11:01:19.420300,SYS_STATUS,,,,,,,16.397,0,100,,,,,
2026-03-27T11:01:19.423121,RC_CHANNELS,,,,,,,,,,1105,,,,
2026-03-27T11:01:19.617889,ATTITUDE,,,,-0.0893474,0.032098189,-2.47560668,,,,,,,,
2026-03-27T11:01:19.619030,GLOBAL_POSITION_INT,51.4935454,-1.748267,167,,,,,,,,,,,
2026-03-27T11:01:19.620232,SYS_STATUS,,,,,,,16.392,0,100,,,,,
2026-03-27T11:01:19.623349,RC_CHANNELS,,,,,,,,,,1105,,,,
2026-03-27T11:01:19.818117,ATTITUDE,,,,-0.016545286,0.057872269,-2.47937274,,,,,,,,
2026-03-27T11:01:19.819257,GLOBAL_POSITION_INT,51.4935453,-1.748267,166.94,,,,,,,,,,,
2026-03-27T11:01:19.820325,SYS_STATUS,,,,,,,16.372,0,100,,,,,
2026-03-27T11:01:19.822981,RC_CHANNELS,,,,,,,,,,1105,,,,
2026-03-27T11:01:20.018341,ATTITUDE,,,,-0.025028763,0.062083114,-2.483828306,,,,,,,,
2026-03-27T11:01:20.019546,GLOBAL_POSITION_INT,51.4935454,-1.748267,166.93,,,,,,,,,,,
2026-03-27T11:01:20.020930,SYS_STATUS,,,,,,,16.394,0,100,,,,,
2026-03-27T11:01:20.023676,RC_CHANNELS,,,,,,,,,,1105,,,,
2026-03-27T11:01:20.217740,ATTITUDE,,,,-0.02894664,0.0538445,-2.510168791,,,,,,,,
2026-03-27T11:01:20.218660,GLOBAL_POSITION_INT,51.4935454,-1.748267,166.94,,,,,,,,,,,
2026-03-27T11:01:20.219917,SYS_STATUS,,,,,,,16.373,0,100,,,,,
2026-03-27T11:01:20.222656,RC_CHANNELS,,,,,,,,,,1105,,,,
2026-03-27T11:01:20.417765,ATTITUDE,,,,-0.022685187,0.05494925,-2.513147116,,,,,,,,
2026-03-27T11:01:20.418704,GLOBAL_POSITION_INT,51.4935454,-1.748267,166.94,,,,,,,,,,,
2026-03-27T11:01:20.420081,SYS_STATUS,,,,,,,16.397,0,100,,,,,
2026-03-27T11:01:20.422992,RC_CHANNELS,,,,,,,,,,1105,,,,
2026-03-27T11:01:20.617707,ATTITUDE,,,,-0.025247058,0.053646028,-2.509413481,,,,,,,,
2026-03-27T11:01:20.618635,GLOBAL_POSITION_INT,51.4935453,-1.748267,166.94,,,,,,,,,,,
2026-03-27T11:01:20.619716,SYS_STATUS,,,,,,,16.392,0,100,,,,,
2026-03-27T11:01:20.622279,RC_CHANNELS,,,,,,,,,,1105,,,,
2026-03-27T11:01:20.818524,ATTITUDE,,,,-0.026411654,0.054635033,-2.507838249,,,,,,,,
2026-03-27T11:01:20.819932,GLOBAL_POSITION_INT,51.4935453,-1.7482669,166.94,,,,,,,,,,,
2026-03-27T11:01:20.821240,SYS_STATUS,,,,,,,16.373,0,100,,,,,
2026-03-27T11:01:20.823803,RC_CHANNELS,,,,,,,,,,1105,,,,
2026-03-27T11:01:21.017810,ATTITUDE,,,,-0.032171644,0.053615212,-2.50438118,,,,,,,,
2026-03-27T11:01:21.018826,GLOBAL_POSITION_INT,51.4935453,-1.7482668,166.94,,,,,,,,,,,
2026-03-27T11:01:21.020661,SYS_STATUS,,,,,,,16.389,0,100,,,,,
2026-03-27T11:01:21.023516,RC_CHANNELS,,,,,,,,,,1105,,,,
2026-03-27T11:01:21.217594,ATTITUDE,,,,-0.036255039,0.056276217,-2.502223969,,,,,,,,
2026-03-27T11:01:21.218478,GLOBAL_POSITION_INT,51.4935452,-1.7482667,166.93,,,,,,,,,,,
2026-03-27T11:01:21.219917,SYS_STATUS,,,,,,,16.373,0,100,,,,,
2026-03-27T11:01:21.222329,RC_CHANNELS,,,,,,,,,,1105,,,,
2026-03-27T11:01:21.417772,ATTITUDE,,,,-0.037894666,0.058545224,-2.50428915,,,,,,,,
2026-03-27T11:01:21.418699,GLOBAL_POSITION_INT,51.4935452,-1.7482667,166.92,,,,,,,,,,,
2026-03-27T11:01:21.420569,SYS_STATUS,,,,,,,16.398,0,100,,,,,
2026-03-27T11:01:21.423374,RC_CHANNELS,,,,,,,,,,1105,,,,
2026-03-27T11:01:21.617654,ATTITUDE,,,,-0.036633,0.059169147,-2.505288124,,,,,,,,
2026-03-27T11:01:21.618736,GLOBAL_POSITION_INT,51.4935451,-1.7482667,166.92,,,,,,,,,,,
2026-03-27T11:01:21.620574,SYS_STATUS,,,,,,,16.392,0,100,,,,,
2026-03-27T11:01:21.623394,RC_CHANNELS,,,,,,,,,,1105,,,,
2026-03-27T11:01:21.818521,ATTITUDE,,,,-0.04301367,0.057747494,-2.511792183,,,,,,,,
2026-03-27T11:01:21.819788,GLOBAL_POSITION_INT,51.4935451,-1.7482668,166.91,,,,,,,,,,,
2026-03-27T11:01:21.821173,SYS_STATUS,,,,,,,16.376,0,100,,,,,
2026-03-27T11:01:21.824269,RC_CHANNELS,,,,,,,,,,1105,,,,
2026-03-27T11:01:22.018412,ATTITUDE,,,,-0.044680953,0.053349577,-2.518921614,,,,,,,,
2026-03-27T11:01:22.019464,GLOBAL_POSITION_INT,51.493545,-1.7482668,166.91,,,,,,,,,,,
2026-03-27T11:01:22.020975,SYS_STATUS,,,,,,,16.392,0,100,,,,,
2026-03-27T11:01:22.023683,RC_CHANNELS,,,,,,,,,,1105,,,,
2026-03-27T11:01:22.217783,ATTITUDE,,,,-0.047984608,0.05727236,-2.528065681,,,,,,,,
2026-03-27T11:01:22.219287,GLOBAL_POSITION_INT,51.4935449,-1.7482668,166.9,,,,,,,,,,,
2026-03-27T11:01:22.220682,SYS_STATUS,,,,,,,16.37,0,100,,,,,
2026-03-27T11:01:22.223199,RC_CHANNELS,,,,,,,,,,1105,,,,
2026-03-27T11:01:22.417747,ATTITUDE,,,,-0.054481909,0.055998608,-2.530389309,,,,,,,,
2026-03-27T11:01:22.418682,GLOBAL_POSITION_INT,51.4935449,-1.7482668,166.91,,,,,,,,,,,
2026-03-27T11:01:22.419669,SYS_STATUS,,,,,,,16.396,0,100,,,,,
2026-03-27T11:01:22.421914,RC_CHANNELS,,,,,,,,,,1105,,,,
2026-03-27T11:01:22.617811,ATTITUDE,,,,-0.058519386,0.067176186,-2.537743568,,,,,,,,
2026-03-27T11:01:22.618764,GLOBAL_POSITION_INT,51.4935449,-1.7482668,166.91,,,,,,,,,,,
2026-03-27T11:01:22.620378,SYS_STATUS,,,,,,,16.389,0,100,,,,,
2026-03-27T11:01:22.623404,RC_CHANNELS,,,,,,,,,,1105,,,,
2026-03-27T11:01:22.818492,ATTITUDE,,,,-0.069587357,0.067175634,-2.532790661,,,,,,,,
2026-03-27T11:01:22.819787,GLOBAL_POSITION_INT,51.4935449,-1.7482667,166.91,,,,,,,,,,,
2026-03-27T11:01:22.821231,SYS_STATUS,,,,,,,16.367,0,100,,,,,
2026-03-27T11:01:22.825033,RC_CHANNELS,,,,,,,,,,1105,,,,
2026-03-27T11:01:23.018149,ATTITUDE,,,,-0.065142289,0.081406981,-2.521710634,,,,,,,,
2026-03-27T11:01:23.019426,GLOBAL_POSITION_INT,51.4935448,-1.7482664,166.9,,,,,,,,,,,
2026-03-27T11:01:23.020803,SYS_STATUS,,,,,,,16.388,0,100,,,,,
2026-03-27T11:01:23.024735,RC_CHANNELS,,,,,,,,,,1105,,,,
2026-03-27T11:01:23.217772,ATTITUDE,,,,-0.056557193,0.087491564,-2.508922577,,,,,,,,
2026-03-27T11:01:23.218938,GLOBAL_POSITION_INT,51.4935448,-1.7482663,166.9,,,,,,,,,,,
2026-03-27T11:01:23.220619,SYS_STATUS,,,,,,,16.366,0,100,,,,,
2026-03-27T11:01:23.223157,RC_CHANNELS,,,,,,,,,,1105,,,,
2026-03-27T11:01:23.417861,ATTITUDE,,,,-0.043485224,0.085629359,-2.510984659,,,,,,,,
2026-03-27T11:01:23.418626,GLOBAL_POSITION_INT,51.4935446,-1.7482663,166.89,,,,,,,,,,,
2026-03-27T11:01:23.419551,SYS_STATUS,,,,,,,16.392,0,100,,,,,
2026-03-27T11:01:23.421844,RC_CHANNELS,,,,,,,,,,1105,,,,
2026-03-27T11:01:23.617681,ATTITUDE,,,,-0.064917192,0.076096125,-2.518369198,,,,,,,,
2026-03-27T11:01:23.618444,GLOBAL_POSITION_INT,51.4935445,-1.7482664,166.9,,,,,,,,,,,
2026-03-27T11:01:23.619778,SYS_STATUS,,,,,,,16.389,0,100,,,,,
2026-03-27T11:01:23.622351,RC_CHANNELS,,,,,,,,,,1105,,,,
2026-03-27T11:01:23.818258,ATTITUDE,,,,-0.056227066,0.069444023,-2.517817974,,,,,,,,
2026-03-27T11:01:23.819080,GLOBAL_POSITION_INT,51.4935445,-1.7482664,166.92,,,,,,,,,,,
2026-03-27T11:01:23.820196,SYS_STATUS,,,,,,,16.371,0,100,,,,,
2026-03-27T11:01:23.823198,RC_CHANNELS,,,,,,,,,,1105,,,,
2026-03-27T11:01:24.018474,ATTITUDE,,,,-0.054142259,0.06160111,-2.522078276,,,,,,,,
2026-03-27T11:01:24.019668,GLOBAL_POSITION_INT,51.4935444,-1.7482664,166.93,,,,,,,,,,,
2026-03-27T11:01:24.021082,SYS_STATUS,,,,,,,16.389,0,100,,,,,
2026-03-27T11:01:24.024517,RC_CHANNELS,,,,,,,,,,1105,,,,
2026-03-27T11:01:24.218587,ATTITUDE,,,,-0.05385302,0.058063578,-2.533632517,,,,,,,,
2026-03-27T11:01:24.219647,GLOBAL_POSITION_INT,51.4935443,-1.7482664,166.94,,,,,,,,,,,
2026-03-27T11:01:24.221011,SYS_STATUS,,,,,,,16.367,0,100,,,,,
2026-03-27T11:01:24.223983,RC_CHANNELS,,,,,,,,,,1105,,,,
2026-03-27T11:01:24.417806,ATTITUDE,,,,-0.058239616,0.063579753,-2.530035973,,,,,,,,
2026-03-27T11:01:24.418735,GLOBAL_POSITION_INT,51.4935444,-1.7482663,166.96,,,,,,,,,,,
2026-03-27T11:01:24.420268,SYS_STATUS,,,,,,,16.398,0,100,,,,,
2026-03-27T11:01:24.423142,RC_CHANNELS,,,,,,,,,,1105,,,,
2026-03-27T11:01:24.617800,ATTITUDE,,,,-0.067180537,0.058006424,-2.512681484,,,,,,,,
2026-03-27T11:01:24.618789,GLOBAL_POSITION_INT,51.4935444,-1.7482663,166.99,,,,,,,,,,,
2026-03-27T11:01:24.620192,SYS_STATUS,,,,,,,16.388,0,100,,,,,
2026-03-27T11:01:24.622817,RC_CHANNELS,,,,,,,,,,1105,,,,
2026-03-27T11:01:24.818576,ATTITUDE,,,,-0.069954388,0.0508839,-2.520890236,,,,,,,,
2026-03-27T11:01:24.820133,GLOBAL_POSITION_INT,51.4935443,-1.7482663,167.02,,,,,,,,,,,
2026-03-27T11:01:24.821294,SYS_STATUS,,,,,,,16.37,0,100,,,,,
2026-03-27T11:01:24.824097,RC_CHANNELS,,,,,,,,,,1105,,,,
2026-03-27T11:01:25.018446,ATTITUDE,,,,-0.06470757,0.047287233,-2.521457434,,,,,,,,
2026-03-27T11:01:25.019595,GLOBAL_POSITION_INT,51.4935443,-1.7482663,167.05,,,,,,,,,,,
2026-03-27T11:01:25.020976,SYS_STATUS,,,,,,,16.388,0,100,,,,,
2026-03-27T11:01:25.024036,RC_CHANNELS,,,,,,,,,,1105,,,,
2026-03-27T11:01:25.217757,ATTITUDE,,,,-0.074350052,0.046623271,-2.531027079,,,,,,,,
2026-03-27T11:01:25.218667,GLOBAL_POSITION_INT,51.4935443,-1.7482663,167.08,,,,,,,,,,,
2026-03-27T11:01:25.219803,SYS_STATUS,,,,,,,16.371,0,100,,,,,
2026-03-27T11:01:25.222309,RC_CHANNELS,,,,,,,,,,1105,,,,
2026-03-27T11:01:25.417884,ATTITUDE,,,,-0.074111469,0.043742985,-2.538789034,,,,,,,,
2026-03-27T11:01:25.419218,GLOBAL_POSITION_INT,51.4935443,-1.7482663,167.11,,,,,,,,,,,
2026-03-27T11:01:25.420779,SYS_STATUS,,,,,,,16.397,0,100,,,,,
2026-03-27T11:01:25.423481,RC_CHANNELS,,,,,,,,,,1105,,,,
2026-03-27T11:01:25.618384,ATTITUDE,,,,-0.075779282,0.043072347,-2.538100004,,,,,,,,
2026-03-27T11:01:25.619573,GLOBAL_POSITION_INT,51.4935444,-1.7482661,167.14,,,,,,,,,,,
2026-03-27T11:01:25.620763,SYS_STATUS,,,,,,,16.387,0,100,,,,,
2026-03-27T11:01:25.623477,RC_CHANNELS,,,,,,,,,,1105,,,,
2026-03-27T11:01:25.818578,ATTITUDE,,,,-0.081664912,0.04411703,-2.544595242,,,,,,,,
2026-03-27T11:01:25.820104,GLOBAL_POSITION_INT,51.4935444,-1.7482661,167.16,,,,,,,,,,,
2026-03-27T11:01:25.821526,SYS_STATUS,,,,,,,16.368,0,100,,,,,
2026-03-27T11:01:25.824797,RC_CHANNELS,,,,,,,,,,1105,,,,
2026-03-27T11:01:26.018193,ATTITUDE,,,,-0.071153261,0.055093039,-2.537286043,,,,,,,,
2026-03-27T11:01:26.019326,GLOBAL_POSITION_INT,51.4935444,-1.7482661,167.19,,,,,,,,,,,
2026-03-27T11:01:26.020505,SYS_STATUS,,,,,,,16.389,0,100,,,,,
2026-03-27T11:01:26.023291,RC_CHANNELS,,,,,,,,,,1105,,,,
2026-03-27T11:01:26.217884,ATTITUDE,,,,-0.087946147,0.022487186,-2.541692972,,,,,,,,
2026-03-27T11:01:26.218737,GLOBAL_POSITION_INT,51.4935444,-1.7482661,167.22,,,,,,,,,,,
2026-03-27T11:01:26.220303,SYS_STATUS,,,,,,,16.375,0,100,,,,,
2026-03-27T11:01:26.222811,RC_CHANNELS,,,,,,,,,,1105,,,,
2026-03-27T11:01:26.417803,ATTITUDE,,,,-0.092725597,0.022702971,-2.548535347,,,,,,,,
2026-03-27T11:01:26.418703,GLOBAL_POSITION_INT,51.4935444,-1.7482661,167.24,,,,,,,,,,,
2026-03-27T11:01:26.420181,SYS_STATUS,,,,,,,16.399,0,100,,,,,
2026-03-27T11:01:26.422896,RC_CHANNELS,,,,,,,,,,1105,,,,
2026-03-27T11:01:26.618452,ATTITUDE,,,,-0.085186012,0.002693796,-2.544696808,,,,,,,,
2026-03-27T11:01:26.619510,GLOBAL_POSITION_INT,51.4935446,-1.7482661,167.26,,,,,,,,,,,
2026-03-27T11:01:26.620947,SYS_STATUS,,,,,,,16.391,0,100,,,,,
2026-03-27T11:01:26.623397,RC_CHANNELS,,,,,,,,,,1105,,,,
2026-03-27T11:01:26.818533,ATTITUDE,,,,-0.088388771,0.011243228,-2.546979904,,,,,,,,
2026-03-27T11:01:26.819716,GLOBAL_POSITION_INT,51.4935446,-1.7482661,167.26,,,,,,,,,,,
2026-03-27T11:01:26.821056,SYS_STATUS,,,,,,,16.371,0,100,,,,,
2026-03-27T11:01:26.823481,RC_CHANNELS,,,,,,,,,,1105,,,,
2026-03-27T11:01:27.018464,ATTITUDE,,,,-0.081940278,0.009387773,-2.542007208,,,,,,,,
2026-03-27T11:01:27.019367,GLOBAL_POSITION_INT,51.4935447,-1.7482659,167.26,,,,,,,,,,,
2026-03-27T11:01:27.020517,SYS_STATUS,,,,,,,16.392,0,100,,,,,
2026-03-27T11:01:27.023488,RC_CHANNELS,,,,,,,,,,1105,,,,
2026-03-27T11:01:27.218188,ATTITUDE,,,,-0.077391759,0.02012069,-2.546656609,,,,,,,,
2026-03-27T11:01:27.218980,GLOBAL_POSITION_INT,51.4935447,-1.7482657,167.27,,,,,,,,,,,
2026-03-27T11:01:27.220270,SYS_STATUS,,,,,,,16.37,0,100,,,,,
2026-03-27T11:01:27.223284,RC_CHANNELS,,,,,,,,,,1105,,,,
2026-03-27T11:01:27.417858,ATTITUDE,,,,-0.086242303,0.011461355,-2.550662279,,,,,,,,
2026-03-27T11:01:27.418904,GLOBAL_POSITION_INT,51.4935447,-1.7482656,167.3,,,,,,,,,,,
2026-03-27T11:01:27.420229,SYS_STATUS,,,,,,,16.39,0,100,,,,,
2026-03-27T11:01:27.423751,RC_CHANNELS,,,,,,,,,,1105,,,,
2026-03-27T11:01:27.618502,ATTITUDE,,,,-0.085619368,0.03473242,-2.549216986,,,,,,,,
2026-03-27T11:01:27.619443,GLOBAL_POSITION_INT,51.4935447,-1.7482655,167.32,,,,,,,,,,,
2026-03-27T11:01:27.620787,SYS_STATUS,,,,,,,16.387,0,100,,,,,
2026-03-27T11:01:27.623318,RC_CHANNELS,,,,,,,,,,1105,,,,
2026-03-27T11:01:27.818621,ATTITUDE,,,,-0.074303411,0.024773788,-2.560445786,,,,,,,,
2026-03-27T11:01:27.820099,GLOBAL_POSITION_INT,51.4935446,-1.7482655,167.35,,,,,,,,,,,
2026-03-27T11:01:27.821208,SYS_STATUS,,,,,,,16.372,0,100,,,,,
2026-03-27T11:01:27.824720,RC_CHANNELS,,,,,,,,,,1105,,,,
2026-03-27T11:01:28.018447,ATTITUDE,,,,-0.079159528,0.026702667,-2.582357407,,,,,,,,
2026-03-27T11:01:28.019218,GLOBAL_POSITION_INT,51.4935446,-1.7482656,167.37,,,,,,,,,,,
2026-03-27T11:01:28.020315,SYS_STATUS,,,,,,,16.389,0,100,,,,,
2026-03-27T11:01:28.023169,RC_CHANNELS,,,,,,,,,,1105,,,,
2026-03-27T11:01:28.218068,ATTITUDE,,,,-0.072793528,0.021004409,-2.600454569,,,,,,,,
2026-03-27T11:01:28.219135,GLOBAL_POSITION_INT,51.4935446,-1.7482657,167.39,,,,,,,,,,,
2026-03-27T11:01:28.220447,SYS_STATUS,,,,,,,16.371,0,100,,,,,
2026-03-27T11:01:28.222832,RC_CHANNELS,,,,,,,,,,1105,,,,
2026-03-27T11:01:28.417811,ATTITUDE,,,,-0.073497683,0.02582101,-2.609803677,,,,,,,,
2026-03-27T11:01:28.418985,GLOBAL_POSITION_INT,51.4935447,-1.7482657,167.4,,,,,,,,,,,
2026-03-27T11:01:28.420780,SYS_STATUS,,,,,,,16.394,0,100,,,,,
2026-03-27T11:01:28.423208,RC_CHANNELS,,,,,,,,,,1105,,,,
2026-03-27T11:01:28.618758,ATTITUDE,,,,-0.074882179,0.029574767,-2.626725912,,,,,,,,
2026-03-27T11:01:28.619888,GLOBAL_POSITION_INT,51.4935448,-1.7482657,167.42,,,,,,,,,,,
2026-03-27T11:01:28.621180,SYS_STATUS,,,,,,,16.395,0,100,,,,,
2026-03-27T11:01:28.624266,RC_CHANNELS,,,,,,,,,,1105,,,,
2026-03-27T11:01:28.818667,ATTITUDE,,,,-0.0639828,0.040818483,-2.652218342,,,,,,,,
2026-03-27T11:01:28.820222,GLOBAL_POSITION_INT,51.4935448,-1.7482657,167.42,,,,,,,,,,,
2026-03-27T11:01:28.821500,SYS_STATUS,,,,,,,16.367,0,100,,,,,
2026-03-27T11:01:28.824327,RC_CHANNELS,,,,,,,,,,1105,,,,
2026-03-27T11:01:29.017888,ATTITUDE,,,,-0.056789674,0.028264087,-2.665449619,,,,,,,,
2026-03-27T11:01:29.018975,GLOBAL_POSITION_INT,51.4935449,-1.7482658,167.43,,,,,,,,,,,
2026-03-27T11:01:29.020705,SYS_STATUS,,,,,,,16.389,0,100,,,,,
2026-03-27T11:01:29.024044,RC_CHANNELS,,,,,,,,,,1105,,,,
2026-03-27T11:01:29.218608,ATTITUDE,,,,-0.061717942,0.037355252,-2.676557302,,,,,,,,
2026-03-27T11:01:29.219395,GLOBAL_POSITION_INT,51.493545,-1.7482658,167.44,,,,,,,,,,,
2026-03-27T11:01:29.220262,SYS_STATUS,,,,,,,16.371,0,100,,,,,
2026-03-27T11:01:29.223341,RC_CHANNELS,,,,,,,,,,1105,,,,
2026-03-27T11:01:29.418022,ATTITUDE,,,,-0.058587372,0.033132721,-2.699546576,,,,,,,,
2026-03-27T11:01:29.418807,GLOBAL_POSITION_INT,51.493545,-1.7482658,167.45,,,,,,,,,,,
2026-03-27T11:01:29.420028,SYS_STATUS,,,,,,,16.393,0,100,,,,,
2026-03-27T11:01:29.423122,RC_CHANNELS,,,,,,,,,,1105,,,,
2026-03-27T11:01:29.618470,ATTITUDE,,,,-0.045427978,0.03014322,-2.728068352,,,,,,,,
2026-03-27T11:01:29.619516,GLOBAL_POSITION_INT,51.4935451,-1.7482659,167.45,,,,,,,,,,,
2026-03-27T11:01:29.621002,SYS_STATUS,,,,,,,16.386,0,100,,,,,
2026-03-27T11:01:29.623448,RC_CHANNELS,,,,,,,,,,1105,,,,
2026-03-27T11:01:29.818363,ATTITUDE,,,,-0.047932729,0.023548452,-2.700639725,,,,,,,,
2026-03-27T11:01:29.819594,GLOBAL_POSITION_INT,51.4935452,-1.7482662,167.46,,,,,,,,,,,
2026-03-27T11:01:29.821043,SYS_STATUS,,,,,,,16.368,0,100,,,,,
2026-03-27T11:01:29.824562,RC_CHANNELS,,,,,,,,,,1105,,,,
2026-03-27T11:01:30.018400,ATTITUDE,,,,-0.064007349,0.032329489,-2.692077637,,,,,,,,
2026-03-27T11:01:30.019176,GLOBAL_POSITION_INT,51.4935454,-1.7482663,167.47,,,,,,,,,,,
2026-03-27T11:01:30.020553,SYS_STATUS,,,,,,,16.385,0,100,,,,,
2026-03-27T11:01:30.023896,RC_CHANNELS,,,,,,,,,,1105,,,,
2026-03-27T11:01:30.217852,ATTITUDE,,,,-0.048580304,0.009111838,-2.670042038,,,,,,,,
2026-03-27T11:01:30.218865,GLOBAL_POSITION_INT,51.4935456,-1.7482665,167.46,,,,,,,,,,,
2026-03-27T11:01:30.220069,SYS_STATUS,,,,,,,16.369,0,100,,,,,
2026-03-27T11:01:30.222753,RC_CHANNELS,,,,,,,,,,1105,,,,
2026-03-27T11:01:30.417866,ATTITUDE,,,,-0.047856428,0.028119203,-2.675849438,,,,,,,,
2026-03-27T11:01:30.418982,GLOBAL_POSITION_INT,51.4935457,-1.7482667,167.44,,,,,,,,,,,
2026-03-27T11:01:30.420615,SYS_STATUS,,,,,,,16.398,0,100,,,,,
2026-03-27T11:01:30.423575,RC_CHANNELS,,,,,,,,,,1105,,,,
2026-03-27T11:01:30.618640,ATTITUDE,,,,-0.045123078,0.036693327,-2.673459291,,,,,,,,
2026-03-27T11:01:30.619759,GLOBAL_POSITION_INT,51.4935458,-1.7482668,167.42,,,,,,,,,,,
2026-03-27T11:01:30.620811,SYS_STATUS,,,,,,,16.392,0,100,,,,,
2026-03-27T11:01:30.623299,RC_CHANNELS,,,,,,,,,,1105,,,,
2026-03-27T11:01:30.818602,ATTITUDE,,,,-0.02197562,0.06782423,-2.671241522,,,,,,,,
2026-03-27T11:01:30.819840,GLOBAL_POSITION_INT,51.4935457,-1.7482667,167.39,,,,,,,,,,,
2026-03-27T11:01:30.821212,SYS_STATUS,,,,,,,16.372,0,100,,,,,
2026-03-27T11:01:30.824460,RC_CHANNELS,,,,,,,,,,1105,,,,
2026-03-27T11:01:31.018590,ATTITUDE,,,,-0.030296443,0.050718378,-2.683407545,,,,,,,,
2026-03-27T11:01:31.019775,GLOBAL_POSITION_INT,51.4935457,-1.7482666,167.37,,,,,,,,,,,
2026-03-27T11:01:31.021090,SYS_STATUS,,,,,,,16.389,0,100,,,,,
2026-03-27T11:01:31.024656,RC_CHANNELS,,,,,,,,,,1105,,,,
2026-03-27T11:01:31.217838,ATTITUDE,,,,-0.024139578,0.046068884,-2.683638096,,,,,,,,
2026-03-27T11:01:31.218611,GLOBAL_POSITION_INT,51.4935457,-1.7482665,167.35,,,,,,,,,,,
2026-03-27T11:01:31.219866,SYS_STATUS,,,,,,,16.368,0,100,,,,,
2026-03-27T11:01:31.222771,RC_CHANNELS,,,,,,,,,,1105,,,,
2026-03-27T11:01:31.417832,ATTITUDE,,,,-0.023373013,0.037760381,-2.68697381,,,,,,,,
2026-03-27T11:01:31.419086,GLOBAL_POSITION_INT,51.4935456,-1.7482665,167.33,,,,,,,,,,,
2026-03-27T11:01:31.420229,SYS_STATUS,,,,,,,16.394,0,100,,,,,
2026-03-27T11:01:31.423313,RC_CHANNELS,,,,,,,,,,1105,,,,
2026-03-27T11:01:31.618590,ATTITUDE,,,,0.007488892,0.025924126,-2.687539339,,,,,,,,
2026-03-27T11:01:31.619670,GLOBAL_POSITION_INT,51.4935456,-1.7482666,167.33,,,,,,,,,,,
2026-03-27T11:01:31.621008,SYS_STATUS,,,,,,,16.385,0,100,,,,,
2026-03-27T11:01:31.623558,RC_CHANNELS,,,,,,,,,,1105,,,,
2026-03-27T11:01:31.818735,ATTITUDE,,,,0.005273164,-0.00543007,-2.659603119,,,,,,,,
2026-03-27T11:01:31.820189,GLOBAL_POSITION_INT,51.4935456,-1.7482668,167.34,,,,,,,,,,,
2026-03-27T11:01:31.821552,SYS_STATUS,,,,,,,16.37,0,100,,,,,
2026-03-27T11:01:31.824229,RC_CHANNELS,,,,,,,,,,1105,,,,
2026-03-27T11:01:32.018274,ATTITUDE,,,,-0.005909894,0.006758104,-2.666067123,,,,,,,,
2026-03-27T11:01:32.019576,GLOBAL_POSITION_INT,51.4935457,-1.7482666,167.35,,,,,,,,,,,
2026-03-27T11:01:32.021074,SYS_STATUS,,,,,,,16.392,0,100,,,,,
2026-03-27T11:01:32.024557,RC_CHANNELS,,,,,,,,,,1105,,,,
2026-03-27T11:01:32.218587,ATTITUDE,,,,0.024567287,-0.001013285,-2.651981831,,,,,,,,
2026-03-27T11:01:32.220233,GLOBAL_POSITION_INT,51.4935457,-1.7482664,167.35,,,,,,,,,,,
2026-03-27T11:01:32.221729,SYS_STATUS,,,,,,,16.366,0,100,,,,,
2026-03-27T11:01:32.224490,RC_CHANNELS,,,,,,,,,,1105,,,,
2026-03-27T11:01:32.418254,ATTITUDE,,,,0.015879504,0.000208051,-2.649087906,,,,,,,,
2026-03-27T11:01:32.419592,GLOBAL_POSITION_INT,51.4935458,-1.7482663,167.36,,,,,,,,,,,
2026-03-27T11:01:32.420928,SYS_STATUS,,,,,,,16.395,0,100,,,,,
2026-03-27T11:01:32.423378,RC_CHANNELS,,,,,,,,,,1105,,,,
2026-03-27T11:01:32.617895,ATTITUDE,,,,0.018758399,0.008767812,-2.660655975,,,,,,,,
2026-03-27T11:01:32.618949,GLOBAL_POSITION_INT,51.4935459,-1.7482663,167.35,,,,,,,,,,,
2026-03-27T11:01:32.620019,SYS_STATUS,,,,,,,16.39,0,100,,,,,
2026-03-27T11:01:32.623164,RC_CHANNELS,,,,,,,,,,1105,,,,
2026-03-27T11:01:32.818516,ATTITUDE,,,,0.02630743,0.023053044,-2.679673195,,,,,,,,
2026-03-27T11:01:32.819920,GLOBAL_POSITION_INT,51.493546,-1.7482662,167.32,,,,,,,,,,,
2026-03-27T11:01:32.821243,SYS_STATUS,,,,,,,16.373,0,100,,,,,
2026-03-27T11:01:32.823585,RC_CHANNELS,,,,,,,,,,1105,,,,
2026-03-27T11:01:33.017906,ATTITUDE,,,,0.015858635,0.019543644,-2.679849625,,,,,,,,
2026-03-27T11:01:33.019117,GLOBAL_POSITION_INT,51.4935461,-1.748266,167.31,,,,,,,,,,,
2026-03-27T11:01:33.020838,SYS_STATUS,,,,,,,16.389,0,100,,,,,
2026-03-27T11:01:33.025099,RC_CHANNELS,,,,,,,,,,1105,,,,
2026-03-27T11:01:33.217896,ATTITUDE,,,,0.001011848,0.025316851,-2.69824338,,,,,,,,
2026-03-27T11:01:33.219242,GLOBAL_POSITION_INT,51.4935461,-1.7482659,167.31,,,,,,,,,,,
2026-03-27T11:01:33.220814,SYS_STATUS,,,,,,,16.369,0,100,,,,,
2026-03-27T11:01:33.224229,RC_CHANNELS,,,,,,,,,,1105,,,,
2026-03-27T11:01:33.418619,ATTITUDE,,,,-0.005850615,0.012070051,-2.727843046,,,,,,,,
2026-03-27T11:01:33.419440,GLOBAL_POSITION_INT,51.4935461,-1.7482659,167.3,,,,,,,,,,,
2026-03-27T11:01:33.420333,SYS_STATUS,,,,,,,16.395,0,100,,,,,
2026-03-27T11:01:33.422679,RC_CHANNELS,,,,,,,,,,1105,,,,
2026-03-27T11:01:33.617956,ATTITUDE,,,,-0.009396091,0.013085729,-2.74993372,,,,,,,,
2026-03-27T11:01:33.618923,GLOBAL_POSITION_INT,51.4935462,-1.7482659,167.3,,,,,,,,,,,
2026-03-27T11:01:33.620241,SYS_STATUS,,,,,,,16.388,0,100,,,,,
2026-03-27T11:01:33.622690,RC_CHANNELS,,,,,,,,,,1105,,,,
2026-03-27T11:01:33.818662,ATTITUDE,,,,-0.023103056,0.019893944,-2.766881943,,,,,,,,
2026-03-27T11:01:33.820155,GLOBAL_POSITION_INT,51.4935462,-1.7482659,167.31,,,,,,,,,,,
2026-03-27T11:01:33.821428,SYS_STATUS,,,,,,,16.37,0,100,,,,,
2026-03-27T11:01:33.823640,RC_CHANNELS,,,,,,,,,,1105,,,,
2026-03-27T11:01:34.018068,ATTITUDE,,,,-0.013695503,0.037122175,-2.777230024,,,,,,,,
2026-03-27T11:01:34.019330,GLOBAL_POSITION_INT,51.4935463,-1.7482658,167.31,,,,,,,,,,,
2026-03-27T11:01:34.020943,SYS_STATUS,,,,,,,16.387,0,100,,,,,
2026-03-27T11:01:34.024051,RC_CHANNELS,,,,,,,,,,1105,,,,
2026-03-27T11:01:34.217956,ATTITUDE,,,,-0.027648503,0.029041059,-2.776902437,,,,,,,,
2026-03-27T11:01:34.219062,GLOBAL_POSITION_INT,51.4935465,-1.7482657,167.32,,,,,,,,,,,
2026-03-27T11:01:34.220638,SYS_STATUS,,,,,,,16.369,0,100,,,,,
2026-03-27T11:01:34.223278,RC_CHANNELS,,,,,,,,,,1105,,,,
2026-03-27T11:01:34.417832,ATTITUDE,,,,-0.041159622,0.020875318,-2.790641308,,,,,,,,
2026-03-27T11:01:34.418803,GLOBAL_POSITION_INT,51.4935467,-1.7482657,167.34,,,,,,,,,,,
2026-03-27T11:01:34.419927,SYS_STATUS,,,,,,,16.397,0,100,,,,,
2026-03-27T11:01:34.422443,RC_CHANNELS,,,,,,,,,,1105,,,,
2026-03-27T11:01:34.617838,ATTITUDE,,,,-0.042605467,0.008514531,-2.820996284,,,,,,,,
2026-03-27T11:01:34.619016,GLOBAL_POSITION_INT,51.4935468,-1.7482655,167.36,,,,,,,,,,,
2026-03-27T11:01:34.620281,SYS_STATUS,,,,,,,16.385,0,100,,,,,
2026-03-27T11:01:34.622696,RC_CHANNELS,,,,,,,,,,1105,,,,
2026-03-27T11:01:34.818621,ATTITUDE,,,,-0.048873484,0.0290922,-2.833742142,,,,,,,,
2026-03-27T11:01:34.819581,GLOBAL_POSITION_INT,51.4935469,-1.7482655,167.37,,,,,,,,,,,
2026-03-27T11:01:34.820455,SYS_STATUS,,,,,,,16.367,0,100,,,,,
2026-03-27T11:01:34.822963,RC_CHANNELS,,,,,,,,,,1105,,,,
2026-03-27T11:01:35.018533,ATTITUDE,,,,-0.044050306,0.048460469,-2.836897373,,,,,,,,
2026-03-27T11:01:35.019787,GLOBAL_POSITION_INT,51.4935469,-1.7482652,167.38,,,,,,,,,,,
2026-03-27T11:01:35.021188,SYS_STATUS,,,,,,,16.391,0,100,,,,,
2026-03-27T11:01:35.024380,RC_CHANNELS,,,,,,,,,,1105,,,,
2026-03-27T11:01:35.218251,ATTITUDE,,,,-0.013970617,0.033655506,-2.83629632,,,,,,,,
2026-03-27T11:01:35.219232,GLOBAL_POSITION_INT,51.4935467,-1.7482649,167.36,,,,,,,,,,,
2026-03-27T11:01:35.220430,SYS_STATUS,,,,,,,16.371,0,100,,,,,
2026-03-27T11:01:35.223062,RC_CHANNELS,,,,,,,,,,1105,,,,
2026-03-27T11:01:35.417941,ATTITUDE,,,,0.00566286,0.066154428,-2.853241444,,,,,,,,
2026-03-27T11:01:35.418968,GLOBAL_POSITION_INT,51.4935466,-1.7482649,167.35,,,,,,,,,,,
2026-03-27T11:01:35.420884,SYS_STATUS,,,,,,,16.394,0,100,,,,,
2026-03-27T11:01:35.423380,RC_CHANNELS,,,,,,,,,,1105,,,,
2026-03-27T11:01:35.618009,ATTITUDE,,,,-0.016691042,0.033612024,-2.87947154,,,,,,,,
2026-03-27T11:01:35.618785,GLOBAL_POSITION_INT,51.4935466,-1.748265,167.36,,,,,,,,,,,
2026-03-27T11:01:35.619941,SYS_STATUS,,,,,,,16.391,0,100,,,,,
2026-03-27T11:01:35.623177,RC_CHANNELS,,,,,,,,,,1105,,,,
2026-03-27T11:01:35.818691,ATTITUDE,,,,-0.009832004,0.026316375,-2.90869689,,,,,,,,
2026-03-27T11:01:35.819765,GLOBAL_POSITION_INT,51.4935466,-1.7482651,167.36,,,,,,,,,,,
2026-03-27T11:01:35.821209,SYS_STATUS,,,,,,,16.367,0,100,,,,,
2026-03-27T11:01:35.824535,RC_CHANNELS,,,,,,,,,,1105,,,,
2026-03-27T11:01:36.018512,ATTITUDE,,,,0.021121968,0.022930974,-2.914590359,,,,,,,,
2026-03-27T11:01:36.019793,GLOBAL_POSITION_INT,51.4935465,-1.7482651,167.35,,,,,,,,,,,
2026-03-27T11:01:36.021141,SYS_STATUS,,,,,,,16.39,0,100,,,,,
2026-03-27T11:01:36.023992,RC_CHANNELS,,,,,,,,,,1105,,,,
2026-03-27T11:01:36.217825,ATTITUDE,,,,0.008280819,0.017064791,-2.918832541,,,,,,,,
2026-03-27T11:01:36.218757,GLOBAL_POSITION_INT,51.4935464,-1.748265,167.35,,,,,,,,,,,
2026-03-27T11:01:36.219915,SYS_STATUS,,,,,,,16.366,0,100,,,,,
2026-03-27T11:01:36.222369,RC_CHANNELS,,,,,,,,,,1105,,,,
2026-03-27T11:01:36.417914,ATTITUDE,,,,0.013479557,0.016564053,-2.941977501,,,,,,,,
2026-03-27T11:01:36.418696,GLOBAL_POSITION_INT,51.4935463,-1.7482651,167.34,,,,,,,,,,,
2026-03-27T11:01:36.420085,SYS_STATUS,,,,,,,16.395,0,100,,,,,
2026-03-27T11:01:36.423464,RC_CHANNELS,,,,,,,,,,1105,,,,
2026-03-27T11:01:36.617914,ATTITUDE,,,,-0.036930606,0.018797301,-2.971452236,,,,,,,,
2026-03-27T11:01:36.619054,GLOBAL_POSITION_INT,51.4935464,-1.7482652,167.34,,,,,,,,,,,
2026-03-27T11:01:36.620417,SYS_STATUS,,,,,,,16.39,0,100,,,,,
2026-03-27T11:01:36.623232,RC_CHANNELS,,,,,,,,,,1105,,,,
2026-03-27T11:01:36.818830,ATTITUDE,,,,-0.058206901,0.024124496,-2.967266321,,,,,,,,
2026-03-27T11:01:36.819681,GLOBAL_POSITION_INT,51.4935464,-1.748265,167.34,,,,,,,,,,,
2026-03-27T11:01:36.820968,SYS_STATUS,,,,,,,16.371,0,100,,,,,
2026-03-27T11:01:36.824505,RC_CHANNELS,,,,,,,,,,1105,,,,
2026-03-27T11:01:37.018298,ATTITUDE,,,,-0.002120523,0.044644803,-2.950714827,,,,,,,,
2026-03-27T11:01:37.019595,GLOBAL_POSITION_INT,51.4935464,-1.7482649,167.31,,,,,,,,,,,
2026-03-27T11:01:37.021134,SYS_STATUS,,,,,,,16.39,0,100,,,,,
2026-03-27T11:01:37.024907,RC_CHANNELS,,,,,,,,,,1105,,,,
2026-03-27T11:01:37.217930,ATTITUDE,,,,-0.011026474,0.061140731,-2.956829071,,,,,,,,
2026-03-27T11:01:37.218983,GLOBAL_POSITION_INT,51.4935463,-1.7482648,167.29,,,,,,,,,,,
2026-03-27T11:01:37.220800,SYS_STATUS,,,,,,,16.372,0,100,,,,,
2026-03-27T11:01:37.223824,RC_CHANNELS,,,,,,,,,,1105,,,,
2026-03-27T11:01:37.418082,ATTITUDE,,,,-0.023945985,0.04665504,-2.961642027,,,,,,,,
2026-03-27T11:01:37.419000,GLOBAL_POSITION_INT,51.4935463,-1.7482647,167.3,,,,,,,,,,,
2026-03-27T11:01:37.420838,SYS_STATUS,,,,,,,16.396,0,100,,,,,
2026-03-27T11:01:37.423509,RC_CHANNELS,,,,,,,,,,1105,,,,
2026-03-27T11:01:37.617849,ATTITUDE,,,,-0.064932629,0.047846776,-2.978012562,,,,,,,,
2026-03-27T11:01:37.618906,GLOBAL_POSITION_INT,51.4935464,-1.7482646,167.34,,,,,,,,,,,
2026-03-27T11:01:37.620297,SYS_STATUS,,,,,,,16.386,0,100,,,,,
2026-03-27T11:01:37.623778,RC_CHANNELS,,,,,,,,,,1105,,,,
2026-03-27T11:01:37.818705,ATTITUDE,,,,-0.065277658,0.021102199,-2.942482471,,,,,,,,
2026-03-27T11:01:37.820094,GLOBAL_POSITION_INT,51.4935465,-1.7482645,167.38,,,,,,,,,,,
2026-03-27T11:01:37.821383,SYS_STATUS,,,,,,,16.369,0,100,,,,,
2026-03-27T11:01:37.824440,RC_CHANNELS,,,,,,,,,,1105,,,,
2026-03-27T11:01:38.018493,ATTITUDE,,,,-0.045379803,0.026028678,-2.940709829,,,,,,,,
2026-03-27T11:01:38.019832,GLOBAL_POSITION_INT,51.4935466,-1.7482644,167.39,,,,,,,,,,,
2026-03-27T11:01:38.021194,SYS_STATUS,,,,,,,16.388,0,100,,,,,
2026-03-27T11:01:38.024575,RC_CHANNELS,,,,,,,,,,1105,,,,
2026-03-27T11:01:38.218609,ATTITUDE,,,,-0.040720999,0.017153833,-2.926285028,,,,,,,,
2026-03-27T11:01:38.219805,GLOBAL_POSITION_INT,51.4935467,-1.7482644,167.42,,,,,,,,,,,
2026-03-27T11:01:38.220994,SYS_STATUS,,,,,,,16.367,0,100,,,,,
2026-03-27T11:01:38.223499,RC_CHANNELS,,,,,,,,,,1105,,,,
2026-03-27T11:01:38.418008,ATTITUDE,,,,-0.053819425,-0.005143459,-2.929036617,,,,,,,,
2026-03-27T11:01:38.418807,GLOBAL_POSITION_INT,51.4935467,-1.7482644,167.45,,,,,,,,,,,
2026-03-27T11:01:38.420076,SYS_STATUS,,,,,,,16.391,0,100,,,,,
2026-03-27T11:01:38.423623,RC_CHANNELS,,,,,,,,,,1105,,,,
2026-03-27T11:01:38.618003,ATTITUDE,,,,-0.060539715,-0.003909667,-2.947746038,,,,,,,,
2026-03-27T11:01:38.619061,GLOBAL_POSITION_INT,51.4935468,-1.7482642,167.47,,,,,,,,,,,
2026-03-27T11:01:38.620367,SYS_STATUS,,,,,,,16.386,0,100,,,,,
2026-03-27T11:01:38.622893,RC_CHANNELS,,,,,,,,,,1105,,,,
2026-03-27T11:01:38.818781,ATTITUDE,,,,-0.044774637,-0.009113725,-2.990401268,,,,,,,,
2026-03-27T11:01:38.820308,GLOBAL_POSITION_INT,51.4935468,-1.748264,167.49,,,,,,,,,,,
2026-03-27T11:01:38.821587,SYS_STATUS,,,,,,,16.37,0,100,,,,,
2026-03-27T11:01:38.824178,RC_CHANNELS,,,,,,,,,,1105,,,,
2026-03-27T11:01:39.018210,ATTITUDE,,,,-0.038614266,-0.016955396,-3.010411978,,,,,,,,
2026-03-27T11:01:39.019392,GLOBAL_POSITION_INT,51.4935468,-1.748264,167.5,,,,,,,,,,,
2026-03-27T11:01:39.021060,SYS_STATUS,,,,,,,16.388,0,100,,,,,
2026-03-27T11:01:39.024397,RC_CHANNELS,,,,,,,,,,1105,,,,
2026-03-27T11:01:39.217937,ATTITUDE,,,,-0.028216267,0.006211488,-3.021622419,,,,,,,,
2026-03-27T11:01:39.219042,GLOBAL_POSITION_INT,51.4935468,-1.7482642,167.51,,,,,,,,,,,
2026-03-27T11:01:39.220784,SYS_STATUS,,,,,,,16.375,0,100,,,,,
2026-03-27T11:01:39.223236,RC_CHANNELS,,,,,,,,,,1105,,,,
2026-03-27T11:01:39.418553,ATTITUDE,,,,-0.010759816,0.01236528,-3.011225224,,,,,,,,
2026-03-27T11:01:39.419609,GLOBAL_POSITION_INT,51.4935468,-1.7482643,167.52,,,,,,,,,,,
2026-03-27T11:01:39.420968,SYS_STATUS,,,,,,,16.395,0,100,,,,,
2026-03-27T11:01:39.423860,RC_CHANNELS,,,,,,,,,,1105,,,,
2026-03-27T11:01:39.618244,ATTITUDE,,,,-0.011828989,0.012212161,-3.027363062,,,,,,,,
2026-03-27T11:01:39.619544,GLOBAL_POSITION_INT,51.4935468,-1.7482645,167.53,,,,,,,,,,,
2026-03-27T11:01:39.621017,SYS_STATUS,,,,,,,16.39,0,100,,,,,
2026-03-27T11:01:39.623845,RC_CHANNELS,,,,,,,,,,1105,,,,
2026-03-27T11:01:39.818845,ATTITUDE,,,,-0.006455777,0.007401863,-3.038879633,,,,,,,,
2026-03-27T11:01:39.819986,GLOBAL_POSITION_INT,51.4935468,-1.7482646,167.55,,,,,,,,,,,
2026-03-27T11:01:39.821290,SYS_STATUS,,,,,,,16.372,0,100,,,,,
2026-03-27T11:01:39.824685,RC_CHANNELS,,,,,,,,,,1105,,,,
2026-03-27T11:01:40.018608,ATTITUDE,,,,-0.009122221,-0.01267042,-3.055050373,,,,,,,,
2026-03-27T11:01:40.019893,GLOBAL_POSITION_INT,51.4935468,-1.7482648,167.58,,,,,,,,,,,
2026-03-27T11:01:40.021365,SYS_STATUS,,,,,,,16.385,0,100,,,,,
2026-03-27T11:01:40.024973,RC_CHANNELS,,,,,,,,,,1105,,,,
2026-03-27T11:01:40.218679,ATTITUDE,,,,-0.015501078,0.005498091,-3.1061306,,,,,,,,
2026-03-27T11:01:40.220199,GLOBAL_POSITION_INT,51.4935468,-1.7482649,167.61,,,,,,,,,,,
2026-03-27T11:01:40.221549,SYS_STATUS,,,,,,,16.365,0,100,,,,,
2026-03-27T11:01:40.223851,RC_CHANNELS,,,,,,,,,,1105,,,,
2026-03-27T11:01:40.418446,ATTITUDE,,,,-0.003681276,0.11096295,3.057559967,,,,,,,,
2026-03-27T11:01:40.419524,GLOBAL_POSITION_INT,51.4935468,-1.7482651,167.65,,,,,,,,,,,
2026-03-27T11:01:40.421164,SYS_STATUS,,,,,,,16.392,0,100,,,,,
2026-03-27T11:01:40.423886,RC_CHANNELS,,,,,,,,,,1105,,,,
2026-03-27T11:01:40.617990,ATTITUDE,,,,-0.005567061,0.096491173,3.003962517,,,,,,,,
2026-03-27T11:01:40.619137,GLOBAL_POSITION_INT,51.4935469,-1.7482652,167.69,,,,,,,,,,,
2026-03-27T11:01:40.620832,SYS_STATUS,,,,,,,16.386,0,100,,,,,
2026-03-27T11:01:40.623241,RC_CHANNELS,,,,,,,,,,1105,,,,
2026-03-27T11:01:40.818853,ATTITUDE,,,,-0.009562645,0.089122079,2.97695446,,,,,,,,
2026-03-27T11:01:40.820523,GLOBAL_POSITION_INT,51.493547,-1.7482653,167.72,,,,,,,,,,,
2026-03-27T11:01:40.821701,SYS_STATUS,,,,,,,16.37,0,100,,,,,
2026-03-27T11:01:40.825026,RC_CHANNELS,,,,,,,,,,1105,,,,
2026-03-27T11:01:41.018633,ATTITUDE,,,,-0.007157788,0.069230266,3.008827448,,,,,,,,
2026-03-27T11:01:41.019944,GLOBAL_POSITION_INT,51.4935471,-1.7482653,167.72,,,,,,,,,,,
2026-03-27T11:01:41.021280,SYS_STATUS,,,,,,,16.385,0,100,,,,,
2026-03-27T11:01:41.024035,RC_CHANNELS,,,,,,,,,,1105,,,,
2026-03-27T11:01:41.218824,ATTITUDE,,,,-0.00972556,0.075684644,3.04826498,,,,,,,,
2026-03-27T11:01:41.220323,GLOBAL_POSITION_INT,51.4935471,-1.7482653,167.71,,,,,,,,,,,
2026-03-27T11:01:41.221516,SYS_STATUS,,,,,,,16.369,0,100,,,,,
2026-03-27T11:01:41.225269,RC_CHANNELS,,,,,,,,,,1105,,,,
2026-03-27T11:01:41.418696,ATTITUDE,,,,-0.005349811,0.040895805,3.092640162,,,,,,,,
2026-03-27T11:01:41.420099,GLOBAL_POSITION_INT,51.4935472,-1.7482653,167.72,,,,,,,,,,,
2026-03-27T11:01:41.421274,SYS_STATUS,,,,,,,16.398,0,100,,,,,
2026-03-27T11:01:41.423623,RC_CHANNELS,,,,,,,,,,1105,,,,
2026-03-27T11:01:41.618646,ATTITUDE,,,,0.007582211,0.046805266,3.103097916,,,,,,,,
2026-03-27T11:01:41.619958,GLOBAL_POSITION_INT,51.4935474,-1.7482652,167.73,,,,,,,,,,,
2026-03-27T11:01:41.621596,SYS_STATUS,,,,,,,16.387,0,100,,,,,
2026-03-27T11:01:41.625493,RC_CHANNELS,,,,,,,,,,1105,,,,
2026-03-27T11:01:41.815661,ATTITUDE,,,,0.002546696,0.031809367,3.107059956,,,,,,,,
2026-03-27T11:01:41.817601,GLOBAL_POSITION_INT,51.4935474,-1.7482652,167.74,,,,,,,,,,,
2026-03-27T11:01:41.819677,SYS_STATUS,,,,,,,16.37,0,100,,,,,
2026-03-27T11:01:41.823075,RC_CHANNELS,,,,,,,,,,1105,,,,
2026-03-27T11:01:42.018454,ATTITUDE,,,,0.002290568,0.023576468,3.106031656,,,,,,,,
2026-03-27T11:01:42.019775,GLOBAL_POSITION_INT,51.4935476,-1.7482651,167.76,,,,,,,,,,,
2026-03-27T11:01:42.021254,SYS_STATUS,,,,,,,16.392,0,100,,,,,
2026-03-27T11:01:42.023771,RC_CHANNELS,,,,,,,,,,1105,,,,
2026-03-27T11:01:42.218639,ATTITUDE,,,,0.010861618,0.032365199,3.118720531,,,,,,,,
2026-03-27T11:01:42.220045,GLOBAL_POSITION_INT,51.4935478,-1.7482651,167.79,,,,,,,,,,,
2026-03-27T11:01:42.221116,SYS_STATUS,,,,,,,16.366,0,100,,,,,
2026-03-27T11:01:42.223382,RC_CHANNELS,,,,,,,,,,1105,,,,
2026-03-27T11:01:42.418702,ATTITUDE,,,,0.011208812,0.037534602,3.129786491,,,,,,,,
2026-03-27T11:01:42.419609,GLOBAL_POSITION_INT,51.493548,-1.7482651,167.82,,,,,,,,,,,
2026-03-27T11:01:42.420623,SYS_STATUS,,,,,,,16.392,0,100,,,,,
2026-03-27T11:01:42.424563,RC_CHANNELS,,,,,,,,,,1105,,,,
2026-03-27T11:01:42.618780,ATTITUDE,,,,0.001798408,0.0428527,3.130470991,,,,,,,,
2026-03-27T11:01:42.620263,GLOBAL_POSITION_INT,51.4935481,-1.7482651,167.85,,,,,,,,,,,
2026-03-27T11:01:42.621895,SYS_STATUS,,,,,,,16.384,0,100,,,,,
2026-03-27T11:01:42.624774,RC_CHANNELS,,,,,,,,,,1105,,,,
2026-03-27T11:01:42.818909,ATTITUDE,,,,-0.004825344,0.033004243,3.132652998,,,,,,,,
2026-03-27T11:01:42.820141,GLOBAL_POSITION_INT,51.4935481,-1.7482652,167.88,,,,,,,,,,,
2026-03-27T11:01:42.821284,SYS_STATUS,,,,,,,16.369,0,100,,,,,
2026-03-27T11:01:42.824531,RC_CHANNELS,,,,,,,,,,1105,,,,
2026-03-27T11:01:43.018450,ATTITUDE,,,,0.003102133,0.020261398,3.136692524,,,,,,,,
2026-03-27T11:01:43.019332,GLOBAL_POSITION_INT,51.4935481,-1.7482652,167.91,,,,,,,,,,,
2026-03-27T11:01:43.020439,SYS_STATUS,,,,,,,16.388,0,100,,,,,
2026-03-27T11:01:43.023344,RC_CHANNELS,,,,,,,,,,1105,,,,
2026-03-27T11:01:43.218658,ATTITUDE,,,,0.008898671,0.023199834,-3.141470671,,,,,,,,
2026-03-27T11:01:43.220132,GLOBAL_POSITION_INT,51.493548,-1.7482653,167.94,,,,,,,,,,,
2026-03-27T11:01:43.221296,SYS_STATUS,,,,,,,16.366,0,100,,,,,
2026-03-27T11:01:43.224692,RC_CHANNELS,,,,,,,,,,1105,,,,
2026-03-27T11:01:43.418233,ATTITUDE,,,,-0.000321552,0.043194134,-3.13568449,,,,,,,,
2026-03-27T11:01:43.419842,GLOBAL_POSITION_INT,51.493548,-1.7482654,167.98,,,,,,,,,,,
2026-03-27T11:01:43.421157,SYS_STATUS,,,,,,,16.398,0,100,,,,,
2026-03-27T11:01:43.424407,RC_CHANNELS,,,,,,,,,,1105,,,,
2026-03-27T11:01:43.618735,ATTITUDE,,,,-0.001910486,0.046857759,-3.133547306,,,,,,,,
2026-03-27T11:01:43.620421,GLOBAL_POSITION_INT,51.493548,-1.7482655,168.02,,,,,,,,,,,
2026-03-27T11:01:43.621513,SYS_STATUS,,,,,,,16.387,0,100,,,,,
2026-03-27T11:01:43.623818,RC_CHANNELS,,,,,,,,,,1105,,,,
2026-03-27T11:01:43.818780,ATTITUDE,,,,-0.010670913,0.040950969,-3.140646696,,,,,,,,
2026-03-27T11:01:43.820449,GLOBAL_POSITION_INT,51.493548,-1.7482655,168.05,,,,,,,,,,,
2026-03-27T11:01:43.821562,SYS_STATUS,,,,,,,16.37,0,100,,,,,
2026-03-27T11:01:43.824356,RC_CHANNELS,,,,,,,,,,1105,,,,
2026-03-27T11:01:44.018432,ATTITUDE,,,,9.34E-05,0.029113775,-3.133827925,,,,,,,,
2026-03-27T11:01:44.019739,GLOBAL_POSITION_INT,51.4935481,-1.7482656,168.07,,,,,,,,,,,
2026-03-27T11:01:44.021285,SYS_STATUS,,,,,,,16.387,0,100,,,,,
2026-03-27T11:01:44.024746,RC_CHANNELS,,,,,,,,,,1105,,,,
2026-03-27T11:01:44.218754,ATTITUDE,,,,0.006229767,0.023628976,-3.109900475,,,,,,,,
2026-03-27T11:01:44.219569,GLOBAL_POSITION_INT,51.4935482,-1.7482659,168.09,,,,,,,,,,,
2026-03-27T11:01:44.220442,SYS_STATUS,,,,,,,16.368,0,100,,,,,
2026-03-27T11:01:44.223466,RC_CHANNELS,,,,,,,,,,1105,,,,
2026-03-27T11:01:44.418027,ATTITUDE,,,,-0.012534473,0.009376267,-3.09142828,,,,,,,,
2026-03-27T11:01:44.419198,GLOBAL_POSITION_INT,51.4935484,-1.7482659,168.11,,,,,,,,,,,
2026-03-27T11:01:44.420500,SYS_STATUS,,,,,,,16.394,0,100,,,,,
2026-03-27T11:01:44.422953,RC_CHANNELS,,,,,,,,,,1105,,,,
2026-03-27T11:01:44.618024,ATTITUDE,,,,-0.031876966,0.005325434,-3.07099247,,,,,,,,
2026-03-27T11:01:44.618821,GLOBAL_POSITION_INT,51.4935486,-1.7482658,168.11,,,,,,,,,,,
2026-03-27T11:01:44.619939,SYS_STATUS,,,,,,,16.384,0,100,,,,,
2026-03-27T11:01:44.623710,RC_CHANNELS,,,,,,,,,,1105,,,,
2026-03-27T11:01:44.818299,ATTITUDE,,,,-0.036853909,0.003290318,-3.060780287,,,,,,,,
2026-03-27T11:01:44.820018,GLOBAL_POSITION_INT,51.4935488,-1.7482656,168.11,,,,,,,,,,,
2026-03-27T11:01:44.821781,SYS_STATUS,,,,,,,16.364,0,100,,,,,
2026-03-27T11:01:44.824389,RC_CHANNELS,,,,,,,,,,1105,,,,
2026-03-27T11:01:45.018837,ATTITUDE,,,,-0.030379174,0.002240389,-3.052191496,,,,,,,,
2026-03-27T11:01:45.020223,GLOBAL_POSITION_INT,51.4935489,-1.7482656,168.1,,,,,,,,,,,
2026-03-27T11:01:45.021341,SYS_STATUS,,,,,,,16.389,0,100,,,,,
2026-03-27T11:01:45.023659,RC_CHANNELS,,,,,,,,,,1105,,,,
2026-03-27T11:01:45.218669,ATTITUDE,,,,-0.033921711,0.000396682,-3.039327145,,,,,,,,
2026-03-27T11:01:45.220220,GLOBAL_POSITION_INT,51.4935489,-1.7482654,168.09,,,,,,,,,,,
2026-03-27T11:01:45.221559,SYS_STATUS,,,,,,,16.366,0,100,,,,,
2026-03-27T11:01:45.224900,RC_CHANNELS,,,,,,,,,,1105,,,,
2026-03-27T11:01:45.417965,ATTITUDE,,,,-0.03867808,-0.001251134,-3.027812481,,,,,,,,
2026-03-27T11:01:45.418865,GLOBAL_POSITION_INT,51.4935489,-1.7482652,168.09,,,,,,,,,,,
2026-03-27T11:01:45.420147,SYS_STATUS,,,,,,,16.394,0,100,,,,,
2026-03-27T11:01:45.422837,RC_CHANNELS,,,,,,,,,,1105,,,,
2026-03-27T11:01:45.618854,ATTITUDE,,,,-0.038271502,-0.000217137,-3.01668787,,,,,,,,
2026-03-27T11:01:45.620627,GLOBAL_POSITION_INT,51.4935488,-1.7482651,168.09,,,,,,,,,,,
2026-03-27T11:01:45.622177,SYS_STATUS,,,,,,,16.387,0,100,,,,,
2026-03-27T11:01:45.625858,RC_CHANNELS,,,,,,,,,,1105,,,,
2026-03-27T11:01:45.818998,ATTITUDE,,,,-0.044480368,-0.007747259,-3.008920908,,,,,,,,
2026-03-27T11:01:45.820537,GLOBAL_POSITION_INT,51.4935486,-1.748265,168.09,,,,,,,,,,,
2026-03-27T11:01:45.821667,SYS_STATUS,,,,,,,16.369,0,100,,,,,
2026-03-27T11:01:45.824269,RC_CHANNELS,,,,,,,,,,1105,,,,
2026-03-27T11:01:46.018638,ATTITUDE,,,,-0.04122863,-0.005989613,-3.006377935,,,,,,,,
2026-03-27T11:01:46.019403,GLOBAL_POSITION_INT,51.4935485,-1.7482649,168.09,,,,,,,,,,,
2026-03-27T11:01:46.020632,SYS_STATUS,,,,,,,16.392,0,100,,,,,
2026-03-27T11:01:46.023482,RC_CHANNELS,,,,,,,,,,1105,,,,
2026-03-27T11:01:46.218804,ATTITUDE,,,,-0.036180459,-0.006139155,-2.992558002,,,,,,,,
2026-03-27T11:01:46.220528,GLOBAL_POSITION_INT,51.4935484,-1.748265,168.09,,,,,,,,,,,
2026-03-27T11:01:46.221772,SYS_STATUS,,,,,,,16.368,0,100,,,,,
2026-03-27T11:01:46.224812,RC_CHANNELS,,,,,,,,,,1105,,,,
2026-03-27T11:01:46.418141,ATTITUDE,,,,-0.040310636,-0.012672707,-2.995726585,,,,,,,,
2026-03-27T11:01:46.418858,GLOBAL_POSITION_INT,51.4935484,-1.7482652,168.08,,,,,,,,,,,
2026-03-27T11:01:46.419765,SYS_STATUS,,,,,,,16.392,0,100,,,,,
2026-03-27T11:01:46.422359,RC_CHANNELS,,,,,,,,,,1105,,,,
2026-03-27T11:01:46.617999,ATTITUDE,,,,-0.04411266,-0.012319274,-2.999187708,,,,,,,,
2026-03-27T11:01:46.619018,GLOBAL_POSITION_INT,51.4935481,-1.7482654,168.07,,,,,,,,,,,
2026-03-27T11:01:46.620776,SYS_STATUS,,,,,,,16.384,0,100,,,,,
2026-03-27T11:01:46.623459,RC_CHANNELS,,,,,,,,,,1105,,,,
2026-03-27T11:01:46.818863,ATTITUDE,,,,-0.04022371,-0.013247713,-2.999797106,,,,,,,,
2026-03-27T11:01:46.820420,GLOBAL_POSITION_INT,51.493548,-1.7482655,168.06,,,,,,,,,,,
2026-03-27T11:01:46.821675,SYS_STATUS,,,,,,,16.365,0,100,,,,,
2026-03-27T11:01:46.823933,RC_CHANNELS,,,,,,,,,,1105,,,,
2026-03-27T11:01:47.018602,ATTITUDE,,,,-0.039247297,-0.013195004,-3.005890131,,,,,,,,
2026-03-27T11:01:47.019758,GLOBAL_POSITION_INT,51.4935478,-1.7482656,168.05,,,,,,,,,,,
2026-03-27T11:01:47.021161,SYS_STATUS,,,,,,,16.388,0,100,,,,,
2026-03-27T11:01:47.024316,RC_CHANNELS,,,,,,,,,,1105,,,,
2026-03-27T11:01:47.218471,ATTITUDE,,,,-0.036972649,-0.020334762,-3.018065453,,,,,,,,
2026-03-27T11:01:47.219989,GLOBAL_POSITION_INT,51.4935476,-1.7482658,168.03,,,,,,,,,,,
2026-03-27T11:01:47.221366,SYS_STATUS,,,,,,,16.363,0,100,,,,,
2026-03-27T11:01:47.224505,RC_CHANNELS,,,,,,,,,,1105,,,,
2026-03-27T11:01:47.418341,ATTITUDE,,,,-0.033869013,-0.020140899,-3.026513338,,,,,,,,
2026-03-27T11:01:47.419216,GLOBAL_POSITION_INT,51.4935475,-1.748266,168.01,,,,,,,,,,,
2026-03-27T11:01:47.420540,SYS_STATUS,,,,,,,16.389,0,100,,,,,
2026-03-27T11:01:47.423795,RC_CHANNELS,,,,,,,,,,1105,,,,
2026-03-27T11:01:47.618751,ATTITUDE,,,,-0.035833798,-0.015392214,-3.025470018,,,,,,,,
2026-03-27T11:01:47.620442,GLOBAL_POSITION_INT,51.4935474,-1.7482662,167.99,,,,,,,,,,,
2026-03-27T11:01:47.621597,SYS_STATUS,,,,,,,16.388,0,100,,,,,
2026-03-27T11:01:47.625191,RC_CHANNELS,,,,,,,,,,1105,,,,
2026-03-27T11:01:47.818763,ATTITUDE,,,,-0.025079852,-0.015894745,-3.016934872,,,,,,,,
2026-03-27T11:01:47.819945,GLOBAL_POSITION_INT,51.4935473,-1.7482663,167.96,,,,,,,,,,,
2026-03-27T11:01:47.821430,SYS_STATUS,,,,,,,16.366,0,100,,,,,
2026-03-27T11:01:47.824682,RC_CHANNELS,,,,,,,,,,1105,,,,
2026-03-27T11:01:48.018606,ATTITUDE,,,,-0.025721313,-0.012601247,-3.013077259,,,,,,,,
2026-03-27T11:01:48.019993,GLOBAL_POSITION_INT,51.4935473,-1.7482663,167.94,,,,,,,,,,,
2026-03-27T11:01:48.021399,SYS_STATUS,,,,,,,16.392,0,100,,,,,
2026-03-27T11:01:48.025400,RC_CHANNELS,,,,,,,,,,1105,,,,
2026-03-27T11:01:48.218853,ATTITUDE,,,,-0.02398636,-0.019374222,-3.002294779,,,,,,,,
2026-03-27T11:01:48.220399,GLOBAL_POSITION_INT,51.4935472,-1.7482663,167.92,,,,,,,,,,,
2026-03-27T11:01:48.221466,SYS_STATUS,,,,,,,16.369,0,100,,,,,
2026-03-27T11:01:48.223845,RC_CHANNELS,,,,,,,,,,1105,,,,
2026-03-27T11:01:48.418765,ATTITUDE,,,,-0.023220858,-0.0233588,-3.000497341,,,,,,,,
2026-03-27T11:01:48.419578,GLOBAL_POSITION_INT,51.4935472,-1.7482663,167.89,,,,,,,,,,,
2026-03-27T11:01:48.420857,SYS_STATUS,,,,,,,16.391,0,100,,,,,
2026-03-27T11:01:48.423769,RC_CHANNELS,,,,,,,,,,1105,,,,
2026-03-27T11:01:48.618762,ATTITUDE,,,,-0.024577038,-0.031176196,-2.996701002,,,,,,,,
2026-03-27T11:01:48.620545,GLOBAL_POSITION_INT,51.4935471,-1.7482663,167.87,,,,,,,,,,,
2026-03-27T11:01:48.621726,SYS_STATUS,,,,,,,16.379,0,100,,,,,
2026-03-27T11:01:48.624391,RC_CHANNELS,,,,,,,,,,1105,,,,
2026-03-27T11:01:48.818841,ATTITUDE,,,,-0.038191251,-0.038556002,-2.97373724,,,,,,,,
2026-03-27T11:01:48.819846,GLOBAL_POSITION_INT,51.4935471,-1.7482663,167.85,,,,,,,,,,,
2026-03-27T11:01:48.820742,SYS_STATUS,,,,,,,16.367,0,100,,,,,
2026-03-27T11:01:48.823748,RC_CHANNELS,,,,,,,,,,1105,,,,
2026-03-27T11:01:49.018770,ATTITUDE,,,,-0.033637889,-0.036057513,-2.971506596,,,,,,,,
2026-03-27T11:01:49.020376,GLOBAL_POSITION_INT,51.493547,-1.7482663,167.82,,,,,,,,,,,
2026-03-27T11:01:49.021724,SYS_STATUS,,,,,,,16.387,0,100,,,,,
2026-03-27T11:01:49.024840,RC_CHANNELS,,,,,,,,,,1105,,,,
2026-03-27T11:01:49.218115,ATTITUDE,,,,-0.030600807,-0.036099575,-2.963055134,,,,,,,,
2026-03-27T11:01:49.219057,GLOBAL_POSITION_INT,51.493547,-1.7482663,167.79,,,,,,,,,,,
2026-03-27T11:01:49.220203,SYS_STATUS,,,,,,,16.366,0,100,,,,,
2026-03-27T11:01:49.223014,RC_CHANNELS,,,,,,,,,,1105,,,,
2026-03-27T11:01:49.418863,ATTITUDE,,,,-0.039557032,-0.032218426,-2.955080748,,,,,,,,
2026-03-27T11:01:49.420277,GLOBAL_POSITION_INT,51.4935469,-1.7482662,167.75,,,,,,,,,,,
2026-03-27T11:01:49.421589,SYS_STATUS,,,,,,,16.392,0,100,,,,,
2026-03-27T11:01:49.425960,RC_CHANNELS,,,,,,,,,,1105,,,,
2026-03-27T11:01:49.619154,ATTITUDE,,,,-0.038399383,-0.026055252,-2.955247164,,,,,,,,
2026-03-27T11:01:49.620312,GLOBAL_POSITION_INT,51.4935469,-1.7482661,167.74,,,,,,,,,,,
2026-03-27T11:01:49.621315,SYS_STATUS,,,,,,,16.39,0,100,,,,,
2026-03-27T11:01:49.623769,RC_CHANNELS,,,,,,,,,,1105,,,,
2026-03-27T11:01:49.818891,ATTITUDE,,,,-0.035808161,0.009801386,-2.971662283,,,,,,,,
2026-03-27T11:01:49.820654,GLOBAL_POSITION_INT,51.4935468,-1.7482661,167.73,,,,,,,,,,,
2026-03-27T11:01:49.821808,SYS_STATUS,,,,,,,16.368,0,100,,,,,
2026-03-27T11:01:49.825357,RC_CHANNELS,,,,,,,,,,1105,,,,
2026-03-27T11:01:50.018672,ATTITUDE,,,,-0.053856201,0.018312637,-2.97919035,,,,,,,,
2026-03-27T11:01:50.020179,GLOBAL_POSITION_INT,51.4935467,-1.748266,167.72,,,,,,,,,,,
2026-03-27T11:01:50.021224,SYS_STATUS,,,,,,,16.385,0,100,,,,,
2026-03-27T11:01:50.023487,RC_CHANNELS,,,,,,,,,,1105,,,,
2026-03-27T11:01:50.218811,ATTITUDE,,,,-0.066633038,0.005650813,-2.999503374,,,,,,,,
2026-03-27T11:01:50.220158,GLOBAL_POSITION_INT,51.4935467,-1.7482659,167.72,,,,,,,,,,,
2026-03-27T11:01:50.221664,SYS_STATUS,,,,,,,16.37,0,100,,,,,
2026-03-27T11:01:50.225488,RC_CHANNELS,,,,,,,,,,1105,,,,
2026-03-27T11:01:50.418811,ATTITUDE,,,,-0.049153246,-0.025046887,-3.019846916,,,,,,,,
2026-03-27T11:01:50.420379,GLOBAL_POSITION_INT,51.4935466,-1.7482658,167.7,,,,,,,,,,,
2026-03-27T11:01:50.421774,SYS_STATUS,,,,,,,16.393,0,100,,,,,
2026-03-27T11:01:50.425031,RC_CHANNELS,,,,,,,,,,1105,,,,
2026-03-27T11:01:50.618043,ATTITUDE,,,,-0.007868981,-0.031318597,-3.084602594,,,,,,,,
2026-03-27T11:01:50.619349,GLOBAL_POSITION_INT,51.4935463,-1.7482658,167.66,,,,,,,,,,,
2026-03-27T11:01:50.620859,SYS_STATUS,,,,,,,16.386,0,100,,,,,
2026-03-27T11:01:50.623683,RC_CHANNELS,,,,,,,,,,1105,,,,
2026-03-27T11:01:50.819131,ATTITUDE,,,,0.000826148,-0.007012775,-3.133723736,,,,,,,,
2026-03-27T11:01:50.820128,GLOBAL_POSITION_INT,51.4935462,-1.7482659,167.64,,,,,,,,,,,
2026-03-27T11:01:50.820969,SYS_STATUS,,,,,,,16.371,0,100,,,,,
2026-03-27T11:01:50.824217,RC_CHANNELS,,,,,,,,,,1105,,,,
2026-03-27T11:01:51.018899,ATTITUDE,,,,-0.015204724,0.00063129,3.107942343,,,,,,,,
2026-03-27T11:01:51.020748,GLOBAL_POSITION_INT,51.4935462,-1.7482661,167.64,,,,,,,,,,,
2026-03-27T11:01:51.022401,SYS_STATUS,,,,,,,16.385,0,100,,,,,
2026-03-27T11:01:51.025240,RC_CHANNELS,,,,,,,,,,1105,,,,
2026-03-27T11:01:51.218851,ATTITUDE,,,,-0.01246101,0.020507578,3.110258102,,,,,,,,
2026-03-27T11:01:51.219850,GLOBAL_POSITION_INT,51.4935462,-1.7482662,167.65,,,,,,,,,,,
2026-03-27T11:01:51.220718,SYS_STATUS,,,,,,,16.367,0,100,,,,,
2026-03-27T11:01:51.223937,RC_CHANNELS,,,,,,,,,,1105,,,,
2026-03-27T11:01:51.418689,ATTITUDE,,,,-0.002004616,0.01401598,3.117102861,,,,,,,,
2026-03-27T11:01:51.419836,GLOBAL_POSITION_INT,51.4935462,-1.7482662,167.66,,,,,,,,,,,
2026-03-27T11:01:51.421420,SYS_STATUS,,,,,,,16.39,0,100,,,,,
2026-03-27T11:01:51.424058,RC_CHANNELS,,,,,,,,,,1105,,,,
2026-03-27T11:01:51.618795,ATTITUDE,,,,-0.001080984,0.006065962,3.12814784,,,,,,,,
2026-03-27T11:01:51.619893,GLOBAL_POSITION_INT,51.4935461,-1.7482663,167.67,,,,,,,,,,,
2026-03-27T11:01:51.621038,SYS_STATUS,,,,,,,16.385,0,100,,,,,
2026-03-27T11:01:51.623832,RC_CHANNELS,,,,,,,,,,1105,,,,
2026-03-27T11:01:51.818847,ATTITUDE,,,,-0.010129301,0.009685371,3.137774706,,,,,,,,
2026-03-27T11:01:51.820535,GLOBAL_POSITION_INT,51.4935461,-1.7482664,167.68,,,,,,,,,,,
2026-03-27T11:01:51.821871,SYS_STATUS,,,,,,,16.371,0,100,,,,,
2026-03-27T11:01:51.824930,RC_CHANNELS,,,,,,,,,,1105,,,,
2026-03-27T11:01:52.018101,ATTITUDE,,,,-0.016758706,-0.00816671,3.137234688,,,,,,,,
2026-03-27T11:01:52.019229,GLOBAL_POSITION_INT,51.4935461,-1.7482665,167.69,,,,,,,,,,,
2026-03-27T11:01:52.021021,SYS_STATUS,,,,,,,16.386,0,100,,,,,
2026-03-27T11:01:52.023802,RC_CHANNELS,,,,,,,,,,1105,,,,
2026-03-27T11:01:52.218861,ATTITUDE,,,,-0.019365067,0.005880902,3.132325411,,,,,,,,
2026-03-27T11:01:52.220596,GLOBAL_POSITION_INT,51.4935461,-1.7482665,167.68,,,,,,,,,,,
2026-03-27T11:01:52.222297,SYS_STATUS,,,,,,,16.366,0,100,,,,,
2026-03-27T11:01:52.225631,RC_CHANNELS,,,,,,,,,,1105,,,,
2026-03-27T11:01:52.418844,ATTITUDE,,,,-0.020975003,0.01411682,3.127938271,,,,,,,,
2026-03-27T11:01:52.420532,GLOBAL_POSITION_INT,51.4935461,-1.7482665,167.67,,,,,,,,,,,
2026-03-27T11:01:52.422066,SYS_STATUS,,,,,,,16.394,0,100,,,,,
2026-03-27T11:01:52.425696,RC_CHANNELS,,,,,,,,,,1105,,,,
2026-03-27T11:01:52.619102,ATTITUDE,,,,-0.02145143,0.007212151,3.133288622,,,,,,,,
2026-03-27T11:01:52.620205,GLOBAL_POSITION_INT,51.4935461,-1.7482665,167.67,,,,,,,,,,,
2026-03-27T11:01:52.621331,SYS_STATUS,,,,,,,16.386,0,100,,,,,
2026-03-27T11:01:52.624677,RC_CHANNELS,,,,,,,,,,1105,,,,
2026-03-27T11:01:52.817526,ATTITUDE,,,,-0.021564255,-0.00575104,3.128273726,,,,,,,,
2026-03-27T11:01:52.818789,GLOBAL_POSITION_INT,51.4935461,-1.7482665,167.68,,,,,,,,,,,
2026-03-27T11:01:52.820815,SYS_STATUS,,,,,,,16.366,0,100,,,,,
2026-03-27T11:01:52.823747,RC_CHANNELS,,,,,,,,,,1105,,,,
2026-03-27T11:01:53.018638,ATTITUDE,,,,-0.023986118,-0.003416503,3.121713877,,,,,,,,
2026-03-27T11:01:53.019831,GLOBAL_POSITION_INT,51.4935461,-1.7482665,167.68,,,,,,,,,,,
2026-03-27T11:01:53.021353,SYS_STATUS,,,,,,,16.388,0,100,,,,,
2026-03-27T11:01:53.025053,RC_CHANNELS,,,,,,,,,,1105,,,,
2026-03-27T11:01:53.218778,ATTITUDE,,,,-0.016192641,-0.000344185,3.123600006,,,,,,,,
2026-03-27T11:01:53.220462,GLOBAL_POSITION_INT,51.493546,-1.7482666,167.66,,,,,,,,,,,
2026-03-27T11:01:53.221622,SYS_STATUS,,,,,,,16.365,0,100,,,,,
2026-03-27T11:01:53.224766,RC_CHANNELS,,,,,,,,,,1105,,,,
2026-03-27T11:01:53.418887,ATTITUDE,,,,-0.013646061,-0.009657953,3.133603811,,,,,,,,
2026-03-27T11:01:53.420114,GLOBAL_POSITION_INT,51.493546,-1.7482667,167.66,,,,,,,,,,,
2026-03-27T11:01:53.421491,SYS_STATUS,,,,,,,16.385,0,100,,,,,
2026-03-27T11:01:53.424335,RC_CHANNELS,,,,,,,,,,1105,,,,
2026-03-27T11:01:53.618812,ATTITUDE,,,,-0.023688806,-0.008691754,3.135884047,,,,,,,,
2026-03-27T11:01:53.620169,GLOBAL_POSITION_INT,51.493546,-1.7482667,167.67,,,,,,,,,,,
2026-03-27T11:01:53.621407,SYS_STATUS,,,,,,,16.382,0,100,,,,,
2026-03-27T11:01:53.624149,RC_CHANNELS,,,,,,,,,,1105,,,,
2026-03-27T11:01:53.819028,ATTITUDE,,,,-0.018457578,-0.009879883,3.138577461,,,,,,,,
2026-03-27T11:01:53.820542,GLOBAL_POSITION_INT,51.493546,-1.7482667,167.67,,,,,,,,,,,
2026-03-27T11:01:53.821711,SYS_STATUS,,,,,,,16.376,0,100,,,,,
2026-03-27T11:01:53.824312,RC_CHANNELS,,,,,,,,,,1105,,,,
2026-03-27T11:01:54.018832,ATTITUDE,,,,-0.021021312,-0.00702477,-3.139297247,,,,,,,,
2026-03-27T11:01:54.020291,GLOBAL_POSITION_INT,51.493546,-1.7482667,167.66,,,,,,,,,,,
2026-03-27T11:01:54.021977,SYS_STATUS,,,,,,,16.378,0,100,,,,,
2026-03-27T11:01:54.024630,RC_CHANNELS,,,,,,,,,,1105,,,,
2026-03-27T11:01:54.218099,ATTITUDE,,,,-0.016232282,-0.014464954,-3.135327578,,,,,,,,
2026-03-27T11:01:54.219085,GLOBAL_POSITION_INT,51.493546,-1.7482666,167.66,,,,,,,,,,,
2026-03-27T11:01:54.221087,SYS_STATUS,,,,,,,16.386,0,100,,,,,
2026-03-27T11:01:54.224322,RC_CHANNELS,,,,,,,,,,1105,,,,
2026-03-27T11:01:54.418029,ATTITUDE,,,,-0.013969963,-0.016052248,-3.131260157,,,,,,,,
2026-03-27T11:01:54.419398,GLOBAL_POSITION_INT,51.493546,-1.7482666,167.66,,,,,,,,,,,
2026-03-27T11:01:54.420812,SYS_STATUS,,,,,,,16.392,0,100,,,,,
2026-03-27T11:01:54.423791,RC_CHANNELS,,,,,,,,,,1105,,,,
2026-03-27T11:01:54.618089,ATTITUDE,,,,-0.020967422,-0.015583523,-3.123043537,,,,,,,,
2026-03-27T11:01:54.619035,GLOBAL_POSITION_INT,51.493546,-1.7482666,167.66,,,,,,,,,,,
2026-03-27T11:01:54.620816,SYS_STATUS,,,,,,,16.387,0,100,,,,,
2026-03-27T11:01:54.623387,RC_CHANNELS,,,,,,,,,,1105,,,,
2026-03-27T11:01:54.819110,ATTITUDE,,,,-0.01388636,-0.024520503,-3.121060133,,,,,,,,
2026-03-27T11:01:54.820233,GLOBAL_POSITION_INT,51.493546,-1.7482666,167.66,,,,,,,,,,,
2026-03-27T11:01:54.821108,SYS_STATUS,,,,,,,16.363,0,100,,,,,
2026-03-27T11:01:54.823469,RC_CHANNELS,,,,,,,,,,1105,,,,
2026-03-27T11:01:55.018868,ATTITUDE,,,,-0.021140235,-0.030182114,-3.124181509,,,,,,,,
2026-03-27T11:01:55.020151,GLOBAL_POSITION_INT,51.493546,-1.7482665,167.66,,,,,,,,,,,
2026-03-27T11:01:55.021471,SYS_STATUS,,,,,,,16.382,0,100,,,,,
2026-03-27T11:01:55.025000,RC_CHANNELS,,,,,,,,,,1105,,,,
2026-03-27T11:01:55.218853,ATTITUDE,,,,-0.026068373,-0.029471999,-3.120625734,,,,,,,,
2026-03-27T11:01:55.220528,GLOBAL_POSITION_INT,51.493546,-1.7482664,167.66,,,,,,,,,,,
2026-03-27T11:01:55.222000,SYS_STATUS,,,,,,,16.367,0,100,,,,,
2026-03-27T11:01:55.225126,RC_CHANNELS,,,,,,,,,,1105,,,,
2026-03-27T11:01:55.418846,ATTITUDE,,,,-0.021830661,-0.026759638,-3.109221458,,,,,,,,
2026-03-27T11:01:55.419840,GLOBAL_POSITION_INT,51.493546,-1.7482664,167.64,,,,,,,,,,,
2026-03-27T11:01:55.421412,SYS_STATUS,,,,,,,16.392,0,100,,,,,
2026-03-27T11:01:55.425741,RC_CHANNELS,,,,,,,,,,1105,,,,
2026-03-27T11:01:55.618133,ATTITUDE,,,,-0.019188294,-0.02379263,-3.097467422,,,,,,,,
2026-03-27T11:01:55.619362,GLOBAL_POSITION_INT,51.4935461,-1.7482662,167.62,,,,,,,,,,,
2026-03-27T11:01:55.620527,SYS_STATUS,,,,,,,16.388,0,100,,,,,
2026-03-27T11:01:55.623278,RC_CHANNELS,,,,,,,,,,1105,,,,
2026-03-27T11:01:55.817553,ATTITUDE,,,,-0.015911046,-0.03664162,-3.096271276,,,,,,,,
2026-03-27T11:01:55.818890,GLOBAL_POSITION_INT,51.4935461,-1.7482661,167.6,,,,,,,,,,,
2026-03-27T11:01:55.820982,SYS_STATUS,,,,,,,16.366,0,100,,,,,
2026-03-27T11:01:55.823227,RC_CHANNELS,,,,,,,,,,1105,,,,
2026-03-27T11:01:56.019055,ATTITUDE,,,,-0.015814537,0.006281707,-3.0889709,,,,,,,,
2026-03-27T11:01:56.020783,GLOBAL_POSITION_INT,51.493546,-1.7482659,167.57,,,,,,,,,,,
2026-03-27T11:01:56.021795,SYS_STATUS,,,,,,,16.387,0,100,,,,,
2026-03-27T11:01:56.024519,RC_CHANNELS,,,,,,,,,,1105,,,,
2026-03-27T11:01:56.218811,ATTITUDE,,,,0.013144047,0.009064991,-3.093029022,,,,,,,,
2026-03-27T11:01:56.220515,GLOBAL_POSITION_INT,51.493546,-1.7482656,167.52,,,,,,,,,,,
2026-03-27T11:01:56.221676,SYS_STATUS,,,,,,,16.366,0,100,,,,,
2026-03-27T11:01:56.223837,RC_CHANNELS,,,,,,,,,,1105,,,,
2026-03-27T11:01:56.418898,ATTITUDE,,,,0.015774373,0.02615593,-3.107657909,,,,,,,,
2026-03-27T11:01:56.419992,GLOBAL_POSITION_INT,51.493546,-1.7482656,167.47,,,,,,,,,,,
2026-03-27T11:01:56.420894,SYS_STATUS,,,,,,,16.395,0,100,,,,,
2026-03-27T11:01:56.423280,RC_CHANNELS,,,,,,,,,,1105,,,,
2026-03-27T11:01:56.619075,ATTITUDE,,,,0.015718639,0.088637993,3.131226301,,,,,,,,
2026-03-27T11:01:56.620825,GLOBAL_POSITION_INT,51.493546,-1.7482656,167.44,,,,,,,,,,,
2026-03-27T11:01:56.622019,SYS_STATUS,,,,,,,16.388,0,100,,,,,
2026-03-27T11:01:56.625034,RC_CHANNELS,,,,,,,,,,1105,,,,
2026-03-27T11:01:56.818982,ATTITUDE,,,,0.019100118,0.092486836,3.065622568,,,,,,,,
2026-03-27T11:01:56.820569,GLOBAL_POSITION_INT,51.4935463,-1.7482655,167.41,,,,,,,,,,,
2026-03-27T11:01:56.821726,SYS_STATUS,,,,,,,16.369,0,100,,,,,
2026-03-27T11:01:56.823861,RC_CHANNELS,,,,,,,,,,1105,,,,
2026-03-27T11:01:57.018937,ATTITUDE,,,,-0.008735634,0.050053023,3.013221264,,,,,,,,
2026-03-27T11:01:57.020127,GLOBAL_POSITION_INT,51.4935465,-1.7482652,167.39,,,,,,,,,,,
2026-03-27T11:01:57.021764,SYS_STATUS,,,,,,,16.392,0,100,,,,,
2026-03-27T11:01:57.024915,RC_CHANNELS,,,,,,,,,,1105,,,,
2026-03-27T11:01:57.218905,ATTITUDE,,,,-0.0289474,0.072709404,2.973841906,,,,,,,,
2026-03-27T11:01:57.220634,GLOBAL_POSITION_INT,51.4935465,-1.7482647,167.36,,,,,,,,,,,
2026-03-27T11:01:57.221836,SYS_STATUS,,,,,,,16.363,0,100,,,,,
2026-03-27T11:01:57.224451,RC_CHANNELS,,,,,,,,,,1105,,,,
2026-03-27T11:01:57.418885,ATTITUDE,,,,-0.019538937,0.060849093,2.941550493,,,,,,,,
2026-03-27T11:01:57.420597,GLOBAL_POSITION_INT,51.4935464,-1.7482642,167.34,,,,,,,,,,,
2026-03-27T11:01:57.421993,SYS_STATUS,,,,,,,16.39,0,100,,,,,
2026-03-27T11:01:57.425779,RC_CHANNELS,,,,,,,,,,1105,,,,
2026-03-27T11:01:57.618918,ATTITUDE,,,,-0.103151701,0.010702861,2.979952812,,,,,,,,
2026-03-27T11:01:57.620722,GLOBAL_POSITION_INT,51.4935465,-1.7482637,167.34,,,,,,,,,,,
2026-03-27T11:01:57.622315,SYS_STATUS,,,,,,,16.386,0,100,,,,,
2026-03-27T11:01:57.626411,RC_CHANNELS,,,,,,,,,,1105,,,,
2026-03-27T11:01:57.818913,ATTITUDE,,,,-0.119687364,-0.03348982,3.081070423,,,,,,,,
2026-03-27T11:01:57.820598,GLOBAL_POSITION_INT,51.4935466,-1.7482635,167.37,,,,,,,,,,,
